{
"type":"FeatureCollection",
"crs":{
"type":"name",
"properties":{
"name":"urn:ogc:def:crs:OGC:1.3:CRS84"
}
},
"features":[{
"type":"Feature",
"properties":{
"station_id":"8508216",
"name":"Werthenstein"
},
"geometry":{
"type":"Point",
"coordinates":[8.101904,47.057121]
}
},{
"type":"Feature",
"properties":{
"station_id":"8500093",
"name":"Hölstein Weidbächli"
},
"geometry":{
"type":"Point",
"coordinates":[7.763513,47.418614]
}
},{
"type":"Feature",
"properties":{
"station_id":"8506104",
"name":"Märstetten"
},
"geometry":{
"type":"Point",
"coordinates":[9.063439,47.582226]
}
},{
"type":"Feature",
"properties":{
"station_id":"8506354",
"name":"Schwendi bei Heiden"
},
"geometry":{
"type":"Point",
"coordinates":[9.530679,47.459491]
}
},{
"type":"Feature",
"properties":{
"station_id":"8506174",
"name":"Matzingen"
},
"geometry":{
"type":"Point",
"coordinates":[8.933176,47.520417]
}
},{
"type":"Feature",
"properties":{
"station_id":"8503130",
"name":"Hinwil"
},
"geometry":{
"type":"Point",
"coordinates":[8.840006,47.299706]
}
},{
"type":"Feature",
"properties":{
"station_id":"8501474",
"name":"Le Sépey"
},
"geometry":{
"type":"Point",
"coordinates":[7.052295,46.361433]
}
},{
"type":"Feature",
"properties":{
"station_id":"8506376",
"name":"Steigbach"
},
"geometry":{
"type":"Point",
"coordinates":[9.405003,47.377143]
}
},{
"type":"Feature",
"properties":{
"station_id":"8506292",
"name":"Degersheim"
},
"geometry":{
"type":"Point",
"coordinates":[9.197402,47.371127]
}
},{
"type":"Feature",
"properties":{
"station_id":"8502103",
"name":"Suhr"
},
"geometry":{
"type":"Point",
"coordinates":[8.083234,47.37223]
}
},{
"type":"Feature",
"properties":{
"station_id":"8503089",
"name":"Wildpark-Höfli"
},
"geometry":{
"type":"Point",
"coordinates":[8.535768,47.296452]
}
},{
"type":"Feature",
"properties":{
"station_id":"8509406",
"name":"Sevelen"
},
"geometry":{
"type":"Point",
"coordinates":[9.493923,47.125541]
}
},{
"type":"Feature",
"properties":{
"station_id":"8505302",
"name":"Melide"
},
"geometry":{
"type":"Point",
"coordinates":[8.951254,45.954317]
}
},{
"type":"Feature",
"properties":{
"station_id":"8500022",
"name":"Frenkendorf-Füllinsdorf"
},
"geometry":{
"type":"Point",
"coordinates":[7.71896,47.5018]
}
},{
"type":"Feature",
"properties":{
"station_id":"8502104",
"name":"Hunzenschwil"
},
"geometry":{
"type":"Point",
"coordinates":[8.125666,47.388383]
}
},{
"type":"Feature",
"properties":{
"station_id":"8502178",
"name":"Obermuhen"
},
"geometry":{
"type":"Point",
"coordinates":[8.055582,47.329351]
}
},{
"type":"Feature",
"properties":{
"station_id":"8508256",
"name":"Stalden i.E."
},
"geometry":{
"type":"Point",
"coordinates":[7.622947,46.870797]
}
},{
"type":"Feature",
"properties":{
"station_id":"8508203",
"name":"Zäziwil"
},
"geometry":{
"type":"Point",
"coordinates":[7.662942,46.899763]
}
},{
"type":"Feature",
"properties":{
"station_id":"8505492",
"name":"Verscio"
},
"geometry":{
"type":"Point",
"coordinates":[8.729786,46.184605]
}
},{
"type":"Feature",
"properties":{
"station_id":"8506190",
"name":"Bussnang"
},
"geometry":{
"type":"Point",
"coordinates":[9.084635,47.556163]
}
},{
"type":"Feature",
"properties":{
"station_id":"8500109",
"name":"Delémont"
},
"geometry":{
"type":"Point",
"coordinates":[7.350186,47.361803]
}
},{
"type":"Feature",
"properties":{
"station_id":"8501675",
"name":"Betten Talstation"
},
"geometry":{
"type":"Point",
"coordinates":[8.076349,46.370965]
}
},{
"type":"Feature",
"properties":{
"station_id":"8501679",
"name":"Findelbach"
},
"geometry":{
"type":"Point",
"coordinates":[7.748898,46.009943]
}
},{
"type":"Feature",
"properties":{
"station_id":"8500102",
"name":"Malleray-Bévilard"
},
"geometry":{
"type":"Point",
"coordinates":[7.275958,47.238696]
}
},{
"type":"Feature",
"properties":{
"station_id":"8501487",
"name":"Bex-Place-du-Marché"
},
"geometry":{
"type":"Point",
"coordinates":[7.012831,46.251057]
}
},{
"type":"Feature",
"properties":{
"station_id":"8504385",
"name":"La Sagne"
},
"geometry":{
"type":"Point",
"coordinates":[6.802293,47.040064]
}
},{
"type":"Feature",
"properties":{
"station_id":"8501100",
"name":"Le Pont"
},
"geometry":{
"type":"Point",
"coordinates":[6.324396,46.667406]
}
},{
"type":"Feature",
"properties":{
"station_id":"8501388",
"name":"Les Combes"
},
"geometry":{
"type":"Point",
"coordinates":[7.171809,46.477391]
}
},{
"type":"Feature",
"properties":{
"station_id":"8505400",
"name":"Locarno"
},
"geometry":{
"type":"Point",
"coordinates":[8.802753,46.172276]
}
},{
"type":"Feature",
"properties":{
"station_id":"8504227",
"name":"Ligerz"
},
"geometry":{
"type":"Point",
"coordinates":[7.135093,47.083518]
}
},{
"type":"Feature",
"properties":{
"station_id":"8014471",
"name":"Albbruck"
},
"geometry":{
"type":"Point",
"coordinates":[8.131335,47.592258]
}
},{
"type":"Feature",
"properties":{
"station_id":"8507005",
"name":"Rubigen"
},
"geometry":{
"type":"Point",
"coordinates":[7.545589,46.899077]
}
},{
"type":"Feature",
"properties":{
"station_id":"8507063",
"name":"Worb Dorf"
},
"geometry":{
"type":"Point",
"coordinates":[7.562418,46.929923]
}
},{
"type":"Feature",
"properties":{
"station_id":"8014460",
"name":"Herten (Baden)"
},
"geometry":{
"type":"Point",
"coordinates":[7.740613,47.549611]
}
},{
"type":"Feature",
"properties":{
"station_id":"8502229",
"name":"Urdorf Weihermatt"
},
"geometry":{
"type":"Point",
"coordinates":[8.43007,47.381243]
}
},{
"type":"Feature",
"properties":{
"station_id":"8517336",
"name":"Luzern Verkehrshaus"
},
"geometry":{
"type":"Point",
"coordinates":[8.337397,47.053873]
}
},{
"type":"Feature",
"properties":{
"station_id":"8504216",
"name":"Noiraigue"
},
"geometry":{
"type":"Point",
"coordinates":[6.721761,46.95477]
}
},{
"type":"Feature",
"properties":{
"station_id":"8508319",
"name":"Horw"
},
"geometry":{
"type":"Point",
"coordinates":[8.306601,47.018299]
}
},{
"type":"Feature",
"properties":{
"station_id":"8509063",
"name":"Fideris"
},
"geometry":{
"type":"Point",
"coordinates":[9.733822,46.922358]
}
},{
"type":"Feature",
"properties":{
"station_id":"8504106",
"name":"Bern Bümpliz Süd"
},
"geometry":{
"type":"Point",
"coordinates":[7.394507,46.936871]
}
},{
"type":"Feature",
"properties":{
"station_id":"8502215",
"name":"Muri AG"
},
"geometry":{
"type":"Point",
"coordinates":[8.339838,47.276696]
}
},{
"type":"Feature",
"properties":{
"station_id":"8504481",
"name":"Marin-Epagnier"
},
"geometry":{
"type":"Point",
"coordinates":[7.010782,47.009199]
}
},{
"type":"Feature",
"properties":{
"station_id":"8501045",
"name":"Denges-Echandens"
},
"geometry":{
"type":"Point",
"coordinates":[6.540209,46.529092]
}
},{
"type":"Feature",
"properties":{
"station_id":"8506208",
"name":"Uzwil"
},
"geometry":{
"type":"Point",
"coordinates":[9.131183,47.437276]
}
},{
"type":"Feature",
"properties":{
"station_id":"8505005",
"name":"Steinen"
},
"geometry":{
"type":"Point",
"coordinates":[8.607614,47.047446]
}
},{
"type":"Feature",
"properties":{
"station_id":"8502216",
"name":"Benzenschwil"
},
"geometry":{
"type":"Point",
"coordinates":[8.365892,47.24641]
}
},{
"type":"Feature",
"properties":{
"station_id":"8501118",
"name":"Renens VD"
},
"geometry":{
"type":"Point",
"coordinates":[6.579051,46.537345]
}
},{
"type":"Feature",
"properties":{
"station_id":"8501395",
"name":"Château-d'Oex-Les Granges"
},
"geometry":{
"type":"Point",
"coordinates":[7.154808,46.474012]
}
},{
"type":"Feature",
"properties":{
"station_id":"8508260",
"name":"Grosshöchstetten"
},
"geometry":{
"type":"Point",
"coordinates":[7.634624,46.904096]
}
},{
"type":"Feature",
"properties":{
"station_id":"8503528",
"name":"Otelfingen"
},
"geometry":{
"type":"Point",
"coordinates":[8.387478,47.454783]
}
},{
"type":"Feature",
"properties":{
"station_id":"8502032",
"name":"Boniswil"
},
"geometry":{
"type":"Point",
"coordinates":[8.183616,47.31765]
}
},{
"type":"Feature",
"properties":{
"station_id":"8505496",
"name":"Verdasio"
},
"geometry":{
"type":"Point",
"coordinates":[8.649228,46.165174]
}
},{
"type":"Feature",
"properties":{
"station_id":"8501360",
"name":"Montreux-Les Planches"
},
"geometry":{
"type":"Point",
"coordinates":[6.917693,46.433129]
}
},{
"type":"Feature",
"properties":{
"station_id":"8508297",
"name":"Menznau"
},
"geometry":{
"type":"Point",
"coordinates":[8.0417,47.082999]
}
},{
"type":"Feature",
"properties":{
"station_id":"8503054",
"name":"Zürich Triemli"
},
"geometry":{
"type":"Point",
"coordinates":[8.495314,47.364906]
}
},{
"type":"Feature",
"properties":{
"station_id":"8506396",
"name":"Muolen"
},
"geometry":{
"type":"Point",
"coordinates":[9.336966,47.517748]
}
},{
"type":"Feature",
"properties":{
"station_id":"8509267",
"name":"Ftan Baraigla"
},
"geometry":{
"type":"Point",
"coordinates":[10.258179,46.787757]
}
},{
"type":"Feature",
"properties":{
"station_id":"8504416",
"name":"Brügg BE"
},
"geometry":{
"type":"Point",
"coordinates":[7.277878,47.123601]
}
},{
"type":"Feature",
"properties":{
"station_id":"8502197",
"name":"Hirschthal"
},
"geometry":{
"type":"Point",
"coordinates":[8.052722,47.319967]
}
},{
"type":"Feature",
"properties":{
"station_id":"8508154",
"name":"Aarwangen Schloss"
},
"geometry":{
"type":"Point",
"coordinates":[7.763622,47.245021]
}
},{
"type":"Feature",
"properties":{
"station_id":"8503319",
"name":"Niederweningen"
},
"geometry":{
"type":"Point",
"coordinates":[8.369608,47.511252]
}
},{
"type":"Feature",
"properties":{
"station_id":"8501069",
"name":"L'Asse"
},
"geometry":{
"type":"Point",
"coordinates":[6.211499,46.401984]
}
},{
"type":"Feature",
"properties":{
"station_id":"8506041",
"name":"Embrach-Rorbas"
},
"geometry":{
"type":"Point",
"coordinates":[8.587959,47.520669]
}
},{
"type":"Feature",
"properties":{
"station_id":"8503125",
"name":"Uster"
},
"geometry":{
"type":"Point",
"coordinates":[8.716002,47.35207]
}
},{
"type":"Feature",
"properties":{
"station_id":"8506381",
"name":"Sammelplatz"
},
"geometry":{
"type":"Point",
"coordinates":[9.432452,47.348251]
}
},{
"type":"Feature",
"properties":{
"station_id":"8509062",
"name":"Jenaz"
},
"geometry":{
"type":"Point",
"coordinates":[9.718466,46.929756]
}
},{
"type":"Feature",
"properties":{
"station_id":"8506379",
"name":"Altstätten Stadt"
},
"geometry":{
"type":"Point",
"coordinates":[9.536933,47.376558]
}
},{
"type":"Feature",
"properties":{
"station_id":"8507069",
"name":"Ittigen bei Bern"
},
"geometry":{
"type":"Point",
"coordinates":[7.483931,46.973364]
}
},{
"type":"Feature",
"properties":{
"station_id":"8500024",
"name":"Lausen"
},
"geometry":{
"type":"Point",
"coordinates":[7.763811,47.469781]
}
},{
"type":"Feature",
"properties":{
"station_id":"8503072",
"name":"Neuhaus bei Hinteregg"
},
"geometry":{
"type":"Point",
"coordinates":[8.674127,47.312909]
}
},{
"type":"Feature",
"properties":{
"station_id":"8501047",
"name":"Morges-St-Jean"
},
"geometry":{
"type":"Point",
"coordinates":[6.50851,46.518391]
}
},{
"type":"Feature",
"properties":{
"station_id":"8502113",
"name":"Aarau"
},
"geometry":{
"type":"Point",
"coordinates":[8.05173,47.391335]
}
},{
"type":"Feature",
"properties":{
"station_id":"8507281",
"name":"Grubenwald"
},
"geometry":{
"type":"Point",
"coordinates":[7.383298,46.57991]
}
},{
"type":"Feature",
"properties":{
"station_id":"8505072",
"name":"Freibergen"
},
"geometry":{
"type":"Point",
"coordinates":[8.479737,47.030245]
}
},{
"type":"Feature",
"properties":{
"station_id":"8502024",
"name":"Hochdorf"
},
"geometry":{
"type":"Point",
"coordinates":[8.288103,47.167636]
}
},{
"type":"Feature",
"properties":{
"station_id":"8500085",
"name":"Niederdorf"
},
"geometry":{
"type":"Point",
"coordinates":[7.755298,47.409975]
}
},{
"type":"Feature",
"properties":{
"station_id":"8501056",
"name":"Sus-Châtel"
},
"geometry":{
"type":"Point",
"coordinates":[6.20597,46.438667]
}
},{
"type":"Feature",
"properties":{
"station_id":"8505065",
"name":"Fruttli"
},
"geometry":{
"type":"Point",
"coordinates":[8.504976,47.038442]
}
},{
"type":"Feature",
"properties":{
"station_id":"8506365",
"name":"Schützengarten"
},
"geometry":{
"type":"Point",
"coordinates":[9.43717,47.413002]
}
},{
"type":"Feature",
"properties":{
"station_id":"8587727",
"name":"Les Ripes"
},
"geometry":{
"type":"Point",
"coordinates":[6.609758,46.594699]
}
},{
"type":"Feature",
"properties":{
"station_id":"8504104",
"name":"Thörishaus Station"
},
"geometry":{
"type":"Point",
"coordinates":[7.356735,46.904359]
}
},{
"type":"Feature",
"properties":{
"station_id":"8506216",
"name":"Kradolf"
},
"geometry":{
"type":"Point",
"coordinates":[9.201922,47.524517]
}
},{
"type":"Feature",
"properties":{
"station_id":"8506043",
"name":"Winterthur Wülflingen"
},
"geometry":{
"type":"Point",
"coordinates":[8.680407,47.5066]
}
},{
"type":"Feature",
"properties":{
"station_id":"8508394",
"name":"Wolfenschiessen"
},
"geometry":{
"type":"Point",
"coordinates":[8.394618,46.907895]
}
},{
"type":"Feature",
"properties":{
"station_id":"8501490",
"name":"Fontannaz-Seulaz"
},
"geometry":{
"type":"Point",
"coordinates":[7.055894,46.267745]
}
},{
"type":"Feature",
"properties":{
"station_id":"8501202",
"name":"Burier"
},
"geometry":{
"type":"Point",
"coordinates":[6.876945,46.447993]
}
},{
"type":"Feature",
"properties":{
"station_id":"8501126",
"name":"Rivaz"
},
"geometry":{
"type":"Point",
"coordinates":[6.785032,46.474182]
}
},{
"type":"Feature",
"properties":{
"station_id":"8505472",
"name":"Solduno"
},
"geometry":{
"type":"Point",
"coordinates":[8.777909,46.169389]
}
},{
"type":"Feature",
"properties":{
"station_id":"8508302",
"name":"Niederried"
},
"geometry":{
"type":"Point",
"coordinates":[7.928182,46.716085]
}
},{
"type":"Feature",
"properties":{
"station_id":"8503284",
"name":"Biberbrugg"
},
"geometry":{
"type":"Point",
"coordinates":[8.72265,47.158164]
}
},{
"type":"Feature",
"properties":{
"station_id":"8501375",
"name":"Chernex"
},
"geometry":{
"type":"Point",
"coordinates":[6.910244,46.445859]
}
},{
"type":"Feature",
"properties":{
"station_id":"8506278",
"name":"Seebleiche"
},
"geometry":{
"type":"Point",
"coordinates":[9.516431,47.477491]
}
},{
"type":"Feature",
"properties":{
"station_id":"8507380",
"name":"Grindelwald"
},
"geometry":{
"type":"Point",
"coordinates":[8.032112,46.624672]
}
},{
"type":"Feature",
"properties":{
"station_id":"8501062",
"name":"St-Cergue"
},
"geometry":{
"type":"Point",
"coordinates":[6.160028,46.448729]
}
},{
"type":"Feature",
"properties":{
"station_id":"8501064",
"name":"Bassins"
},
"geometry":{
"type":"Point",
"coordinates":[6.223535,46.46142]
}
},{
"type":"Feature",
"properties":{
"station_id":"8507275",
"name":"Stöckli"
},
"geometry":{
"type":"Point",
"coordinates":[7.388433,46.516691]
}
},{
"type":"Feature",
"properties":{
"station_id":"8504315",
"name":"Le Crêt-du-Locle"
},
"geometry":{
"type":"Point",
"coordinates":[6.785727,47.077814]
}
},{
"type":"Feature",
"properties":{
"station_id":"8505003",
"name":"Immensee"
},
"geometry":{
"type":"Point",
"coordinates":[8.462286,47.092049]
}
},{
"type":"Feature",
"properties":{
"station_id":"8508219",
"name":"Littau"
},
"geometry":{
"type":"Point",
"coordinates":[8.255963,47.052152]
}
},{
"type":"Feature",
"properties":{
"station_id":"8500200",
"name":"Pieterlen"
},
"geometry":{
"type":"Point",
"coordinates":[7.339926,47.171407]
}
},{
"type":"Feature",
"properties":{
"station_id":"8504056",
"name":"Le Crêt",
"type":"disabled",
"rules":"",
"platform":""
},
"geometry":{
"type":"Point",
"coordinates":[6.94091,46.600798]
}
},{
"type":"Feature",
"properties":{
"station_id":"8509363",
"name":"Li Curt"
},
"geometry":{
"type":"Point",
"coordinates":[10.063065,46.311379]
}
},{
"type":"Feature",
"properties":{
"station_id":"8502207",
"name":"Sihlbrugg",
"type":"disabled",
"rules":"",
"platform":""
},
"geometry":{
"type":"Point",
"coordinates":[8.577035,47.238149]
}
},{
"type":"Feature",
"properties":{
"station_id":"8502026",
"name":"Gelfingen"
},
"geometry":{
"type":"Point",
"coordinates":[8.265,47.213302]
}
},{
"type":"Feature",
"properties":{
"station_id":"8505174",
"name":"Dieni"
},
"geometry":{
"type":"Point",
"coordinates":[8.742972,46.669977]
}
},{
"type":"Feature",
"properties":{
"station_id":"8506132",
"name":"Tägerwilen-Gottlieben"
},
"geometry":{
"type":"Point",
"coordinates":[9.13193,47.659921]
}
},{
"type":"Feature",
"properties":{
"station_id":"8501042",
"name":"Etoy"
},
"geometry":{
"type":"Point",
"coordinates":[6.427895,46.475113]
}
},{
"type":"Feature",
"properties":{
"station_id":"8506025",
"name":"Etzwilen"
},
"geometry":{
"type":"Point",
"coordinates":[8.820421,47.661779]
}
},{
"type":"Feature",
"properties":{
"station_id":"8509060",
"name":"Schiers"
},
"geometry":{
"type":"Point",
"coordinates":[9.688597,46.967782]
}
},{
"type":"Feature",
"properties":{
"station_id":"8503055",
"name":"Uitikon Waldegg"
},
"geometry":{
"type":"Point",
"coordinates":[8.466022,47.365962]
}
},{
"type":"Feature",
"properties":{
"station_id":"8507082",
"name":"Bern Ausserholligen GBS"
},
"geometry":{
"type":"Point",
"coordinates":[7.407386,46.944044]
}
},{
"type":"Feature",
"properties":{
"station_id":"8501001",
"name":"La Plaine"
},
"geometry":{
"type":"Point",
"coordinates":[5.998434,46.178946]
}
},{
"type":"Feature",
"properties":{
"station_id":"8509056",
"name":"Landquart Ried"
},
"geometry":{
"type":"Point",
"coordinates":[9.561124,46.957068]
}
},{
"type":"Feature",
"properties":{
"station_id":"8504462",
"name":"Lattrigen"
},
"geometry":{
"type":"Point",
"coordinates":[7.214063,47.096698]
}
},{
"type":"Feature",
"properties":{
"station_id":"8504401",
"name":"Fräschels"
},
"geometry":{
"type":"Point",
"coordinates":[7.207105,47.000347]
}
},{
"type":"Feature",
"properties":{
"station_id":"8508301",
"name":"Ringgenberg"
},
"geometry":{
"type":"Point",
"coordinates":[7.899985,46.703995]
}
},{
"type":"Feature",
"properties":{
"station_id":"8508395",
"name":"Innertkirchen Post MIB"
},
"geometry":{
"type":"Point",
"coordinates":[8.22833,46.706523]
}
},{
"type":"Feature",
"properties":{
"station_id":"8509373",
"name":"Bernina Lagalb"
},
"geometry":{
"type":"Point",
"coordinates":[9.991392,46.436019]
}
},{
"type":"Feature",
"properties":{
"station_id":"8504205",
"name":"Gorgier-St-Aubin"
},
"geometry":{
"type":"Point",
"coordinates":[6.781271,46.899355]
}
},{
"type":"Feature",
"properties":{
"station_id":"8506301",
"name":"St. Gallen Bruggen"
},
"geometry":{
"type":"Point",
"coordinates":[9.327858,47.406501]
}
},{
"type":"Feature",
"properties":{
"station_id":"8504015",
"name":"Vevey-Funi"
},
"geometry":{
"type":"Point",
"coordinates":[6.833967,46.46929]
}
},{
"type":"Feature",
"properties":{
"station_id":"8508317",
"name":"Alpnachstad"
},
"geometry":{
"type":"Point",
"coordinates":[8.277709,46.954681]
}
},{
"type":"Feature",
"properties":{
"station_id":"8506148",
"name":"St. Katharinental"
},
"geometry":{
"type":"Point",
"coordinates":[8.731845,47.687597]
}
},{
"type":"Feature",
"properties":{
"station_id":"8503204",
"name":"Horgen"
},
"geometry":{
"type":"Point",
"coordinates":[8.596326,47.261651]
}
},{
"type":"Feature",
"properties":{
"station_id":"8505112",
"name":"Flüelen"
},
"geometry":{
"type":"Point",
"coordinates":[8.624342,46.901573]
}
},{
"type":"Feature",
"properties":{
"station_id":"8506134",
"name":"Mannenbach-Salenstein"
},
"geometry":{
"type":"Point",
"coordinates":[9.053125,47.673655]
}
},{
"type":"Feature",
"properties":{
"station_id":"8506350",
"name":"Walzenhausen"
},
"geometry":{
"type":"Point",
"coordinates":[9.599732,47.453939]
}
},{
"type":"Feature",
"properties":{
"station_id":"8503107",
"name":"Stäfa"
},
"geometry":{
"type":"Point",
"coordinates":[8.722356,47.240489]
}
},{
"type":"Feature",
"properties":{
"station_id":"8509402",
"name":"Salez-Sennwald"
},
"geometry":{
"type":"Point",
"coordinates":[9.50267,47.24196]
}
},{
"type":"Feature",
"properties":{
"station_id":"8530430",
"name":"Route de Morgins"
},
"geometry":{
"type":"Point",
"coordinates":[6.919663,46.231784]
}
},{
"type":"Feature",
"properties":{
"station_id":"8505471",
"name":"Locarno S. Antonio"
},
"geometry":{
"type":"Point",
"coordinates":[8.785051,46.168656]
}
},{
"type":"Feature",
"properties":{
"station_id":"8503411",
"name":"Koblenz Dorf"
},
"geometry":{
"type":"Point",
"coordinates":[8.240098,47.60942]
}
},{
"type":"Feature",
"properties":{
"station_id":"8500274",
"name":"Feldbrunnen"
},
"geometry":{
"type":"Point",
"coordinates":[7.556301,47.220853]
}
},{
"type":"Feature",
"properties":{
"station_id":"8501662",
"name":"Obergesteln"
},
"geometry":{
"type":"Point",
"coordinates":[8.326362,46.513501]
}
},{
"type":"Feature",
"properties":{
"station_id":"8501063",
"name":"Arzier"
},
"geometry":{
"type":"Point",
"coordinates":[6.21227,46.459302]
}
},{
"type":"Feature",
"properties":{
"station_id":"8507291",
"name":"Weissenbach"
},
"geometry":{
"type":"Point",
"coordinates":[7.374294,46.60359]
}
},{
"type":"Feature",
"properties":{
"station_id":"8501661",
"name":"Oberwald"
},
"geometry":{
"type":"Point",
"coordinates":[8.341092,46.52867]
}
},{
"type":"Feature",
"properties":{
"station_id":"8506002",
"name":"Winterthur Seen"
},
"geometry":{
"type":"Point",
"coordinates":[8.766925,47.487569]
}
},{
"type":"Feature",
"properties":{
"station_id":"8501498",
"name":"Bouquetins"
},
"geometry":{
"type":"Point",
"coordinates":[7.072245,46.31652]
}
},{
"type":"Feature",
"properties":{
"station_id":"8501485",
"name":"Fontanney"
},
"geometry":{
"type":"Point",
"coordinates":[6.982414,46.318433]
}
},{
"type":"Feature",
"properties":{
"station_id":"8502008",
"name":"Nottwil"
},
"geometry":{
"type":"Point",
"coordinates":[8.138276,47.139212]
}
},{
"type":"Feature",
"properties":{
"station_id":"8515992",
"name":"Baar Neufeld"
},
"geometry":{
"type":"Point",
"coordinates":[8.517691,47.188435]
}
},{
"type":"Feature",
"properties":{
"station_id":"8503280",
"name":"Steinerberg"
},
"geometry":{
"type":"Point",
"coordinates":[8.585089,47.052081]
}
},{
"type":"Feature",
"properties":{
"station_id":"8503207",
"name":"Richterswil"
},
"geometry":{
"type":"Point",
"coordinates":[8.707893,47.208273]
}
},{
"type":"Feature",
"properties":{
"station_id":"8506355",
"name":"Heiden"
},
"geometry":{
"type":"Point",
"coordinates":[9.536627,47.446158]
}
},{
"type":"Feature",
"properties":{
"station_id":"8506285",
"name":"Gonten"
},
"geometry":{
"type":"Point",
"coordinates":[9.347732,47.328756]
}
},{
"type":"Feature",
"properties":{
"station_id":"8506178",
"name":"Münchwilen TG"
},
"geometry":{
"type":"Point",
"coordinates":[8.999008,47.476756]
}
},{
"type":"Feature",
"properties":{
"station_id":"8506367",
"name":"Bendlehn"
},
"geometry":{
"type":"Point",
"coordinates":[9.451262,47.406406]
}
},{
"type":"Feature",
"properties":{
"station_id":"8502269",
"name":"Erdmannlistein"
},
"geometry":{
"type":"Point",
"coordinates":[8.310171,47.347481]
}
},{
"type":"Feature",
"properties":{
"station_id":"8501302",
"name":"Veytaux-Chillon"
},
"geometry":{
"type":"Point",
"coordinates":[6.927675,46.417674]
}
},{
"type":"Feature",
"properties":{
"station_id":"8501371",
"name":"Caux"
},
"geometry":{
"type":"Point",
"coordinates":[6.938881,46.431083]
}
},{
"type":"Feature",
"properties":{
"station_id":"8506361",
"name":"Notkersegg"
},
"geometry":{
"type":"Point",
"coordinates":[9.403749,47.425362]
}
},{
"type":"Feature",
"properties":{
"station_id":"8504125",
"name":"Domdidier"
},
"geometry":{
"type":"Point",
"coordinates":[7.011445,46.868541]
}
},{
"type":"Feature",
"properties":{
"station_id":"8501667",
"name":"Gluringen"
},
"geometry":{
"type":"Point",
"coordinates":[8.233935,46.462899]
}
},{
"type":"Feature",
"properties":{
"station_id":"8503087",
"name":"Zürich Saalsporthalle"
},
"geometry":{
"type":"Point",
"coordinates":[8.521962,47.357625]
}
},{
"type":"Feature",
"properties":{
"station_id":"8503206",
"name":"Wädenswil"
},
"geometry":{
"type":"Point",
"coordinates":[8.675553,47.22892]
}
},{
"type":"Feature",
"properties":{
"station_id":"8501098",
"name":"Montricher"
},
"geometry":{
"type":"Point",
"coordinates":[6.393086,46.59651]
}
},{
"type":"Feature",
"properties":{
"station_id":"8501562",
"name":"Salvan"
},
"geometry":{
"type":"Point",
"coordinates":[7.021242,46.121766]
}
},{
"type":"Feature",
"properties":{
"station_id":"8503415",
"name":"Rümikon AG"
},
"geometry":{
"type":"Point",
"coordinates":[8.37466,47.565241]
}
},{
"type":"Feature",
"properties":{
"station_id":"8504012",
"name":"Puidoux-Chexbres"
},
"geometry":{
"type":"Point",
"coordinates":[6.766023,46.493952]
}
},{
"type":"Feature",
"properties":{
"station_id":"8501462",
"name":"Collombey-Muraz"
},
"geometry":{
"type":"Point",
"coordinates":[6.945928,46.270152]
}
},{
"type":"Feature",
"properties":{
"station_id":"8506319",
"name":"Altstätten SG"
},
"geometry":{
"type":"Point",
"coordinates":[9.556569,47.37404]
}
},{
"type":"Feature",
"properties":{
"station_id":"8507096",
"name":"Papiermühle"
},
"geometry":{
"type":"Point",
"coordinates":[7.477111,46.973942]
}
},{
"type":"Feature",
"properties":{
"station_id":"8501067",
"name":"Givrins"
},
"geometry":{
"type":"Point",
"coordinates":[6.205462,46.428954]
}
},{
"type":"Feature",
"properties":{
"station_id":"8506305",
"name":"Goldach"
},
"geometry":{
"type":"Point",
"coordinates":[9.467047,47.473914]
}
},{
"type":"Feature",
"properties":{
"station_id":"8505002",
"name":"Küssnacht am Rigi"
},
"geometry":{
"type":"Point",
"coordinates":[8.433326,47.083776]
}
},{
"type":"Feature",
"properties":{
"station_id":"8501090",
"name":"Prélionne"
},
"geometry":{
"type":"Point",
"coordinates":[6.48038,46.509224]
}
},{
"type":"Feature",
"properties":{
"station_id":"8507078",
"name":"Wabern bei Bern"
},
"geometry":{
"type":"Point",
"coordinates":[7.446104,46.928604]
}
},{
"type":"Feature",
"properties":{
"station_id":"8506286",
"name":"Appenzell"
},
"geometry":{
"type":"Point",
"coordinates":[9.409333,47.328413]
}
},{
"type":"Feature",
"properties":{
"station_id":"8502106",
"name":"Mägenwil"
},
"geometry":{
"type":"Point",
"coordinates":[8.235274,47.414682]
}
},{
"type":"Feature",
"properties":{
"station_id":"8503525",
"name":"Otelfingen Golfpark"
},
"geometry":{
"type":"Point",
"coordinates":[8.401819,47.455807]
}
},{
"type":"Feature",
"properties":{
"station_id":"8506322",
"name":"Rorschach Stadt"
},
"geometry":{
"type":"Point",
"coordinates":[9.488753,47.475537]
}
},{
"type":"Feature",
"properties":{
"station_id":"8508261",
"name":"Biglen"
},
"geometry":{
"type":"Point",
"coordinates":[7.626912,46.924484]
}
},{
"type":"Feature",
"properties":{
"station_id":"8504489",
"name":"Bern Bümpliz Nord"
},
"geometry":{
"type":"Point",
"coordinates":[7.389272,46.945935]
}
},{
"type":"Feature",
"properties":{
"station_id":"8509365",
"name":"Miralago"
},
"geometry":{
"type":"Point",
"coordinates":[10.099992,46.273172]
}
},{
"type":"Feature",
"properties":{
"station_id":"8500293",
"name":"Thalbrücke"
},
"geometry":{
"type":"Point",
"coordinates":[7.688087,47.308386]
}
},{
"type":"Feature",
"properties":{
"station_id":"8503315",
"name":"Dielsdorf"
},
"geometry":{
"type":"Point",
"coordinates":[8.459537,47.482197]
}
},{
"type":"Feature",
"properties":{
"station_id":"8506394",
"name":"Roggwil-Berg"
},
"geometry":{
"type":"Point",
"coordinates":[9.39209,47.485172]
}
},{
"type":"Feature",
"properties":{
"station_id":"8504183",
"name":"Pensier"
},
"geometry":{
"type":"Point",
"coordinates":[7.137712,46.843164]
}
},{
"type":"Feature",
"properties":{
"station_id":"8501420",
"name":"Massongex"
},
"geometry":{
"type":"Point",
"coordinates":[6.985225,46.24154]
}
},{
"type":"Feature",
"properties":{
"station_id":"8500023",
"name":"Liestal"
},
"geometry":{
"type":"Point",
"coordinates":[7.731777,47.484212]
}
},{
"type":"Feature",
"properties":{
"station_id":"8500191",
"name":"Saignelégier"
},
"geometry":{
"type":"Point",
"coordinates":[6.992528,47.253828]
}
},{
"type":"Feature",
"properties":{
"station_id":"8506204",
"name":"Lütisburg"
},
"geometry":{
"type":"Point",
"coordinates":[9.070637,47.383927]
}
},{
"type":"Feature",
"properties":{
"station_id":"8501393",
"name":"La Chaudanne-Les Moulins"
},
"geometry":{
"type":"Point",
"coordinates":[7.097321,46.465973]
}
},{
"type":"Feature",
"properties":{
"station_id":"8503008",
"name":"Zürich Affoltern"
},
"geometry":{
"type":"Point",
"coordinates":[8.5102,47.420493]
}
},{
"type":"Feature",
"properties":{
"station_id":"8509181",
"name":"Domat/Ems"
},
"geometry":{
"type":"Point",
"coordinates":[9.453104,46.833286]
}
},{
"type":"Feature",
"properties":{
"station_id":"8503051",
"name":"Zürich Binz"
},
"geometry":{
"type":"Point",
"coordinates":[8.518044,47.36287]
}
},{
"type":"Feature",
"properties":{
"station_id":"8501026",
"name":"Genève-Aéroport"
},
"geometry":{
"type":"Point",
"coordinates":[6.111263,46.231847]
}
},{
"type":"Feature",
"properties":{
"station_id":"8501452",
"name":"St-Triphon-Gare"
},
"geometry":{
"type":"Point",
"coordinates":[6.97235,46.277839]
}
},{
"type":"Feature",
"properties":{
"station_id":"8500179",
"name":"La Cibourg"
},
"geometry":{
"type":"Point",
"coordinates":[6.883838,47.122308]
}
},{
"type":"Feature",
"properties":{
"station_id":"8500199",
"name":"Combe-Tabeillon"
},
"geometry":{
"type":"Point",
"coordinates":[7.190099,47.329359]
}
},{
"type":"Feature",
"properties":{
"station_id":"8501575",
"name":"Bovernier"
},
"geometry":{
"type":"Point",
"coordinates":[7.082378,46.078689]
}
},{
"type":"Feature",
"properties":{
"station_id":"8501674",
"name":"Grengiols"
},
"geometry":{
"type":"Point",
"coordinates":[8.092012,46.375544]
}
},{
"type":"Feature",
"properties":{
"station_id":"8504413",
"name":"Suberg-Grossaffoltern"
},
"geometry":{
"type":"Point",
"coordinates":[7.339718,47.056561]
}
},{
"type":"Feature",
"properties":{
"station_id":"8501054",
"name":"La Gottaz"
},
"geometry":{
"type":"Point",
"coordinates":[6.484246,46.506495]
}
},{
"type":"Feature",
"properties":{
"station_id":"8508158",
"name":"Scharnageln"
},
"geometry":{
"type":"Point",
"coordinates":[7.700706,47.263242]
}
},{
"type":"Feature",
"properties":{
"station_id":"8501561",
"name":"Vernayaz MC"
},
"geometry":{
"type":"Point",
"coordinates":[7.045075,46.130137]
}
},{
"type":"Feature",
"properties":{
"station_id":"8501171",
"name":"Etagnières"
},
"geometry":{
"type":"Point",
"coordinates":[6.61323,46.599798]
}
},{
"type":"Feature",
"properties":{
"station_id":"8503302",
"name":"Fehraltorf"
},
"geometry":{
"type":"Point",
"coordinates":[8.75,47.385143]
}
},{
"type":"Feature",
"properties":{
"station_id":"8507094",
"name":"Uetendorf Allmend"
},
"geometry":{
"type":"Point",
"coordinates":[7.594858,46.773113]
}
},{
"type":"Feature",
"properties":{
"station_id":"8506015",
"name":"Räterschen"
},
"geometry":{
"type":"Point",
"coordinates":[8.794525,47.498934]
}
},{
"type":"Feature",
"properties":{
"station_id":"8501473",
"name":"Les Planches (Aigle)"
},
"geometry":{
"type":"Point",
"coordinates":[7.05491,46.355477]
}
},{
"type":"Feature",
"properties":{
"station_id":"8508391",
"name":"Stans"
},
"geometry":{
"type":"Point",
"coordinates":[8.366859,46.958285]
}
},{
"type":"Feature",
"properties":{
"station_id":"8503016",
"name":"Zürich Flughafen"
},
"geometry":{
"type":"Point",
"coordinates":[8.561838,47.450181]
}
},{
"type":"Feature",
"properties":{
"station_id":"8505395",
"name":"Agno"
},
"geometry":{
"type":"Point",
"coordinates":[8.901121,45.995997]
}
},{
"type":"Feature",
"properties":{
"station_id":"8504461",
"name":"Nidau"
},
"geometry":{
"type":"Point",
"coordinates":[7.242347,47.124131]
}
},{
"type":"Feature",
"properties":{
"station_id":"8503293",
"name":"Grüenfeld"
},
"geometry":{
"type":"Point",
"coordinates":[8.686946,47.198211]
}
},{
"type":"Feature",
"properties":{
"station_id":"8503136",
"name":"Fischenthal"
},
"geometry":{
"type":"Point",
"coordinates":[8.923306,47.333019]
}
},{
"type":"Feature",
"properties":{
"station_id":"8509404",
"name":"Buchs SG"
},
"geometry":{
"type":"Point",
"coordinates":[9.47731,47.171879]
}
},{
"type":"Feature",
"properties":{
"station_id":"8501690",
"name":"Zermatt GGB"
},
"geometry":{
"type":"Point",
"coordinates":[7.749157,46.023822]
}
},{
"type":"Feature",
"properties":{
"station_id":"8505071",
"name":"Grubisbalm"
},
"geometry":{
"type":"Point",
"coordinates":[8.483313,47.026074]
}
},{
"type":"Feature",
"properties":{
"station_id":"8506100",
"name":"Frauenfeld"
},
"geometry":{
"type":"Point",
"coordinates":[8.896732,47.558419]
}
},{
"type":"Feature",
"properties":{
"station_id":"8502025",
"name":"Baldegg"
},
"geometry":{
"type":"Point",
"coordinates":[8.280158,47.185757]
}
},{
"type":"Feature",
"properties":{
"station_id":"8508164",
"name":"St. Urban Ziegelei"
},
"geometry":{
"type":"Point",
"coordinates":[7.836257,47.227416]
}
},{
"type":"Feature",
"properties":{
"station_id":"8508006",
"name":"Wynigen"
},
"geometry":{
"type":"Point",
"coordinates":[7.662611,47.104645]
}
},{
"type":"Feature",
"properties":{
"station_id":"8503106",
"name":"Männedorf"
},
"geometry":{
"type":"Point",
"coordinates":[8.692676,47.253428]
}
},{
"type":"Feature",
"properties":{
"station_id":"8509170",
"name":"Castrisch"
},
"geometry":{
"type":"Point",
"coordinates":[9.233422,46.778534]
}
},{
"type":"Feature",
"properties":{
"station_id":"8501464",
"name":"Troistorrents"
},
"geometry":{
"type":"Point",
"coordinates":[6.915678,46.228312]
}
},{
"type":"Feature",
"properties":{
"station_id":"8506024",
"name":"Stammheim"
},
"geometry":{
"type":"Point",
"coordinates":[8.788401,47.635171]
}
},{
"type":"Feature",
"properties":{
"station_id":"8504128",
"name":"Murten"
},
"geometry":{
"type":"Point",
"coordinates":[7.11463,46.924859]
}
},{
"type":"Feature",
"properties":{
"station_id":"8503111",
"name":"Winkel am Zürichsee"
},
"geometry":{
"type":"Point",
"coordinates":[8.598937,47.297283]
}
},{
"type":"Feature",
"properties":{
"station_id":"8509257",
"name":"Madulain"
},
"geometry":{
"type":"Point",
"coordinates":[9.938359,46.587134]
}
},{
"type":"Feature",
"properties":{
"station_id":"8500263",
"name":"Im Holz"
},
"geometry":{
"type":"Point",
"coordinates":[7.474915,47.230954]
}
},{
"type":"Feature",
"properties":{
"station_id":"8503098",
"name":"Sihlwald"
},
"geometry":{
"type":"Point",
"coordinates":[8.557737,47.268365]
}
},{
"type":"Feature",
"properties":{
"station_id":"8501160",
"name":"Lausanne-Chauderon"
},
"geometry":{
"type":"Point",
"coordinates":[6.62606,46.52346]
}
},{
"type":"Feature",
"properties":{
"station_id":"8500292",
"name":"Klus"
},
"geometry":{
"type":"Point",
"coordinates":[7.704416,47.297188]
}
},{
"type":"Feature",
"properties":{
"station_id":"8504028",
"name":"Rosé"
},
"geometry":{
"type":"Point",
"coordinates":[7.061734,46.782407]
}
},{
"type":"Feature",
"properties":{
"station_id":"8506309",
"name":"Egnach"
},
"geometry":{
"type":"Point",
"coordinates":[9.385501,47.542987]
}
},{
"type":"Feature",
"properties":{
"station_id":"8501459",
"name":"St-Triphon-Village"
},
"geometry":{
"type":"Point",
"coordinates":[6.976064,46.301837]
}
},{
"type":"Feature",
"properties":{
"station_id":"8530783",
"name":"Chez-le-Maître-Ecoles"
},
"geometry":{
"type":"Point",
"coordinates":[6.224011,46.600928]
}
},{
"type":"Feature",
"properties":{
"station_id":"8508054",
"name":"Worblaufen"
},
"geometry":{
"type":"Point",
"coordinates":[7.459175,46.980891]
}
},{
"type":"Feature",
"properties":{
"station_id":"8504403",
"name":"Bargen"
},
"geometry":{
"type":"Point",
"coordinates":[7.261971,47.040321]
}
},{
"type":"Feature",
"properties":{
"station_id":"8517377",
"name":"Bibenlos-Sonnenhof"
},
"geometry":{
"type":"Point",
"coordinates":[8.350299,47.353719]
}
},{
"type":"Feature",
"properties":{
"station_id":"8505596",
"name":"Ribellasca"
},
"geometry":{
"type":"Point",
"coordinates":[8.576524,46.139111]
}
},{
"type":"Feature",
"properties":{
"station_id":"8503317",
"name":"Schöfflisdorf-Oberweningen"
},
"geometry":{
"type":"Point",
"coordinates":[8.411726,47.497891]
}
},{
"type":"Feature",
"properties":{
"station_id":"8506133",
"name":"Ermatingen"
},
"geometry":{
"type":"Point",
"coordinates":[9.086199,47.669952]
}
},{
"type":"Feature",
"properties":{
"station_id":"8516187",
"name":"Zug Schutzengel"
},
"geometry":{
"type":"Point",
"coordinates":[8.506831,47.173873]
}
},{
"type":"Feature",
"properties":{
"station_id":"8504065",
"name":"Vaulruz-Sud"
},
"geometry":{
"type":"Point",
"coordinates":[6.990222,46.619174]
}
},{
"type":"Feature",
"properties":{
"station_id":"8507379",
"name":"Mürren BLM"
},
"geometry":{
"type":"Point",
"coordinates":[7.897361,46.564312]
}
},{
"type":"Feature",
"properties":{
"station_id":"8506176",
"name":"Wängi"
},
"geometry":{
"type":"Point",
"coordinates":[8.95333,47.496497]
}
},{
"type":"Feature",
"properties":{
"station_id":"8501454",
"name":"Fayot"
},
"geometry":{
"type":"Point",
"coordinates":[6.89952,46.212169]
}
},{
"type":"Feature",
"properties":{
"station_id":"8503138",
"name":"Wald"
},
"geometry":{
"type":"Point",
"coordinates":[8.913395,47.272261]
}
},{
"type":"Feature",
"properties":{
"station_id":"8506293",
"name":"Mogelsberg"
},
"geometry":{
"type":"Point",
"coordinates":[9.141419,47.363914]
}
},{
"type":"Feature",
"properties":{
"station_id":"8509156",
"name":"Litzirüti"
},
"geometry":{
"type":"Point",
"coordinates":[9.703328,46.798139]
}
},{
"type":"Feature",
"properties":{
"station_id":"8504136",
"name":"Cousset"
},
"geometry":{
"type":"Point",
"coordinates":[6.977509,46.818673]
}
},{
"type":"Feature",
"properties":{
"station_id":"8504311",
"name":"Sonvilier"
},
"geometry":{
"type":"Point",
"coordinates":[6.971125,47.141155]
}
},{
"type":"Feature",
"properties":{
"station_id":"8508071",
"name":"Schönbühl Shoppyland"
},
"geometry":{
"type":"Point",
"coordinates":[7.493438,47.018704]
}
},{
"type":"Feature",
"properties":{
"station_id":"8501400",
"name":"Aigle"
},
"geometry":{
"type":"Point",
"coordinates":[6.962877,46.318092]
}
},{
"type":"Feature",
"properties":{
"station_id":"8500101",
"name":"Reconvilier"
},
"geometry":{
"type":"Point",
"coordinates":[7.22811,47.235191]
}
},{
"type":"Feature",
"properties":{
"station_id":"8503139",
"name":"Tann-Dürnten"
},
"geometry":{
"type":"Point",
"coordinates":[8.852071,47.268433]
}
},{
"type":"Feature",
"properties":{
"station_id":"8500122",
"name":"Bassecourt"
},
"geometry":{
"type":"Point",
"coordinates":[7.246985,47.336745]
}
},{
"type":"Feature",
"properties":{
"station_id":"8504181",
"name":"Givisiez"
},
"geometry":{
"type":"Point",
"coordinates":[7.125124,46.816674]
}
},{
"type":"Feature",
"properties":{
"station_id":"8506046",
"name":"Henggart"
},
"geometry":{
"type":"Point",
"coordinates":[8.685511,47.563456]
}
},{
"type":"Feature",
"properties":{
"station_id":"8530064",
"name":"Bex Pont-Neuf"
},
"geometry":{
"type":"Point",
"coordinates":[7.020183,46.250521]
}
},{
"type":"Feature",
"properties":{
"station_id":"8506270",
"name":"St. Gallen Marktplatz"
},
"geometry":{
"type":"Point",
"coordinates":[9.376636,47.426413]
}
},{
"type":"Feature",
"properties":{
"station_id":"8500204",
"name":"Selzach"
},
"geometry":{
"type":"Point",
"coordinates":[7.456669,47.200682]
}
},{
"type":"Feature",
"properties":{
"station_id":"8509169",
"name":"Valendas-Sagogn"
},
"geometry":{
"type":"Point",
"coordinates":[9.275424,46.791912]
}
},{
"type":"Feature",
"properties":{
"station_id":"8500180",
"name":"La Large-Journée"
},
"geometry":{
"type":"Point",
"coordinates":[6.892754,47.158996]
}
},{
"type":"Feature",
"properties":{
"station_id":"8530760",
"name":"Aareschlucht West"
},
"geometry":{
"type":"Point",
"coordinates":[8.198604,46.721244]
}
},{
"type":"Feature",
"properties":{
"station_id":"8502275",
"name":"Widen Heinrüti"
},
"geometry":{
"type":"Point",
"coordinates":[8.353452,47.361574]
}
},{
"type":"Feature",
"properties":{
"station_id":"8505068",
"name":"Rigi Staffel"
},
"geometry":{
"type":"Point",
"coordinates":[8.474245,47.053809]
}
},{
"type":"Feature",
"properties":{
"station_id":"8509361",
"name":"Poschiavo"
},
"geometry":{
"type":"Point",
"coordinates":[10.054303,46.324444]
}
},{
"type":"Feature",
"properties":{
"station_id":"8503062",
"name":"Egg"
},
"geometry":{
"type":"Point",
"coordinates":[8.690356,47.300456]
}
},{
"type":"Feature",
"properties":{
"station_id":"8500196",
"name":"Bollement"
},
"geometry":{
"type":"Point",
"coordinates":[7.124022,47.297321]
}
},{
"type":"Feature",
"properties":{
"station_id":"8506131",
"name":"Kreuzlingen"
},
"geometry":{
"type":"Point",
"coordinates":[9.169216,47.652705]
}
},{
"type":"Feature",
"properties":{
"station_id":"8507374",
"name":"Kleine Scheidegg"
},
"geometry":{
"type":"Point",
"coordinates":[7.960637,46.58535]
}
},{
"type":"Feature",
"properties":{
"station_id":"8509188",
"name":"Cazis"
},
"geometry":{
"type":"Point",
"coordinates":[9.433033,46.719765]
}
},{
"type":"Feature",
"properties":{
"station_id":"8508205",
"name":"Signau"
},
"geometry":{
"type":"Point",
"coordinates":[7.725305,46.91945]
}
},{
"type":"Feature",
"properties":{
"station_id":"8501448",
"name":"Champéry"
},
"geometry":{
"type":"Point",
"coordinates":[6.871376,46.174833]
}
},{
"type":"Feature",
"properties":{
"station_id":"8503426",
"name":"Langwiesen"
},
"geometry":{
"type":"Point",
"coordinates":[8.662295,47.683404]
}
},{
"type":"Feature",
"properties":{
"station_id":"8509154",
"name":"Peist"
},
"geometry":{
"type":"Point",
"coordinates":[9.671949,46.829876]
}
},{
"type":"Feature",
"properties":{
"station_id":"8501168",
"name":"Vernand-Camarès"
},
"geometry":{
"type":"Point",
"coordinates":[6.605111,46.575323]
}
},{
"type":"Feature",
"properties":{
"station_id":"8509179",
"name":"Disentis/Mustér"
},
"geometry":{
"type":"Point",
"coordinates":[8.856668,46.705417]
}
},{
"type":"Feature",
"properties":{
"station_id":"8505495",
"name":"Corcapolo"
},
"geometry":{
"type":"Point",
"coordinates":[8.675038,46.168772]
}
},{
"type":"Feature",
"properties":{
"station_id":"8500144",
"name":"Buix"
},
"geometry":{
"type":"Point",
"coordinates":[7.029914,47.479466]
}
},{
"type":"Feature",
"properties":{
"station_id":"8500118",
"name":"Dornach-Arlesheim"
},
"geometry":{
"type":"Point",
"coordinates":[7.611135,47.489256]
}
},{
"type":"Feature",
"properties":{
"station_id":"8505393",
"name":"Cappella-Agnuzzo"
},
"geometry":{
"type":"Point",
"coordinates":[8.9244,45.993308]
}
},{
"type":"Feature",
"properties":{
"station_id":"8501366",
"name":"Paccot"
},
"geometry":{
"type":"Point",
"coordinates":[6.962397,46.437698]
}
},{
"type":"Feature",
"properties":{
"station_id":"8509350",
"name":"Celerina Staz"
},
"geometry":{
"type":"Point",
"coordinates":[9.865035,46.509487]
}
},{
"type":"Feature",
"properties":{
"station_id":"8506197",
"name":"Kreuzlingen Bernrain"
},
"geometry":{
"type":"Point",
"coordinates":[9.162688,47.642341]
}
},{
"type":"Feature",
"properties":{
"station_id":"8502200",
"name":"Ebikon"
},
"geometry":{
"type":"Point",
"coordinates":[8.342895,47.084883]
}
},{
"type":"Feature",
"properties":{
"station_id":"8509358",
"name":"Cavaglia"
},
"geometry":{
"type":"Point",
"coordinates":[10.043899,46.364593]
}
},{
"type":"Feature",
"properties":{
"station_id":"8506118",
"name":"Triboltingen"
},
"geometry":{
"type":"Point",
"coordinates":[9.108685,47.662974]
}
},{
"type":"Feature",
"properties":{
"station_id":"8503118",
"name":"Benken SG"
},
"geometry":{
"type":"Point",
"coordinates":[9.00864,47.204322]
}
},{
"type":"Feature",
"properties":{
"station_id":"8503141",
"name":"Küsnacht Goldbach"
},
"geometry":{
"type":"Point",
"coordinates":[8.576014,47.326683]
}
},{
"type":"Feature",
"properties":{
"station_id":"8501108",
"name":"La Sarraz"
},
"geometry":{
"type":"Point",
"coordinates":[6.518159,46.658145]
}
},{
"type":"Feature",
"properties":{
"station_id":"8505209",
"name":"Biasca"
},
"geometry":{
"type":"Point",
"coordinates":[8.974039,46.352543]
}
},{
"type":"Feature",
"properties":{
"station_id":"8501061",
"name":"La Givrine"
},
"geometry":{
"type":"Point",
"coordinates":[6.110801,46.454596]
}
},{
"type":"Feature",
"properties":{
"station_id":"8506007",
"name":"Turbenthal"
},
"geometry":{
"type":"Point",
"coordinates":[8.843745,47.437196]
}
},{
"type":"Feature",
"properties":{
"station_id":"8509185",
"name":"Rhäzüns"
},
"geometry":{
"type":"Point",
"coordinates":[9.399377,46.79956]
}
},{
"type":"Feature",
"properties":{
"station_id":"8505399",
"name":"Sorengo"
},
"geometry":{
"type":"Point",
"coordinates":[8.935196,46.000552]
}
},{
"type":"Feature",
"properties":{
"station_id":"8500280",
"name":"Solothurn Baseltor"
},
"geometry":{
"type":"Point",
"coordinates":[7.541362,47.210065]
}
},{
"type":"Feature",
"properties":{
"station_id":"8502201",
"name":"Gisikon-Root"
},
"geometry":{
"type":"Point",
"coordinates":[8.39282,47.119544]
}
},{
"type":"Feature",
"properties":{
"station_id":"8505300",
"name":"Lugano"
},
"geometry":{
"type":"Point",
"coordinates":[8.946594,46.004727]
}
},{
"type":"Feature",
"properties":{
"station_id":"8503292",
"name":"Altmatt"
},
"geometry":{
"type":"Point",
"coordinates":[8.695542,47.131566]
}
},{
"type":"Feature",
"properties":{
"station_id":"8506281",
"name":"Waldstatt"
},
"geometry":{
"type":"Point",
"coordinates":[9.28623,47.35754]
}
},{
"type":"Feature",
"properties":{
"station_id":"8509177",
"name":"Rabius-Surrein"
},
"geometry":{
"type":"Point",
"coordinates":[8.957429,46.732497]
}
},{
"type":"Feature",
"properties":{
"station_id":"8506137",
"name":"Mammern"
},
"geometry":{
"type":"Point",
"coordinates":[8.914063,47.644139]
}
},{
"type":"Feature",
"properties":{
"station_id":"8500167",
"name":"Les Breuleux-Eglise",
"type":"disabled",
"rules":"",
"platform":""
},
"geometry":{
"type":"Point",
"coordinates":[7.002399,47.213282]
}
},{
"type":"Feature",
"properties":{
"station_id":"8501284",
"name":"Les Chevalleyres"
},
"geometry":{
"type":"Point",
"coordinates":[6.901525,46.473337]
}
},{
"type":"Feature",
"properties":{
"station_id":"8503305",
"name":"Effretikon"
},
"geometry":{
"type":"Point",
"coordinates":[8.686418,47.42558]
}
},{
"type":"Feature",
"properties":{
"station_id":"8501092",
"name":"Bussy-Chardonney"
},
"geometry":{
"type":"Point",
"coordinates":[6.446518,46.526827]
}
},{
"type":"Feature",
"properties":{
"station_id":"8506313",
"name":"Rheineck"
},
"geometry":{
"type":"Point",
"coordinates":[9.589228,47.469421]
}
},{
"type":"Feature",
"properties":{
"station_id":"8504284",
"name":"La Presta Mines d'asphalte"
},
"geometry":{
"type":"Point",
"coordinates":[6.651603,46.930857]
}
},{
"type":"Feature",
"properties":{
"station_id":"8501576",
"name":"Sembrancher"
},
"geometry":{
"type":"Point",
"coordinates":[7.145762,46.077415]
}
},{
"type":"Feature",
"properties":{
"station_id":"8501482",
"name":"Leysin-Feydey"
},
"geometry":{
"type":"Point",
"coordinates":[7.00753,46.343783]
}
},{
"type":"Feature",
"properties":{
"station_id":"8506397",
"name":"Steinebrunn"
},
"geometry":{
"type":"Point",
"coordinates":[9.350592,47.531406]
}
},{
"type":"Feature",
"properties":{
"station_id":"8505207",
"name":"Bodio TI"
},
"geometry":{
"type":"Point",
"coordinates":[8.908335,46.378661]
}
},{
"type":"Feature",
"properties":{
"station_id":"8508250",
"name":"Schwäbis"
},
"geometry":{
"type":"Point",
"coordinates":[7.619085,46.762823]
}
},{
"type":"Feature",
"properties":{
"station_id":"8506384",
"name":"Schachen (Gais)"
},
"geometry":{
"type":"Point",
"coordinates":[9.477262,47.361351]
}
},{
"type":"Feature",
"properties":{
"station_id":"8506302",
"name":"St. Gallen"
},
"geometry":{
"type":"Point",
"coordinates":[9.369052,47.423103]
}
},{
"type":"Feature",
"properties":{
"station_id":"8014463",
"name":"Beuggen"
},
"geometry":{
"type":"Point",
"coordinates":[7.810807,47.58183]
}
},{
"type":"Feature",
"properties":{
"station_id":"8501384",
"name":"Sonzier"
},
"geometry":{
"type":"Point",
"coordinates":[6.921566,46.438994]
}
},{
"type":"Feature",
"properties":{
"station_id":"8500169",
"name":"Muriaux"
},
"geometry":{
"type":"Point",
"coordinates":[6.985477,47.244168]
}
},{
"type":"Feature",
"properties":{
"station_id":"8509269",
"name":"Sagliains"
},
"geometry":{
"type":"Point",
"coordinates":[10.094531,46.762465]
}
},{
"type":"Feature",
"properties":{
"station_id":"8501470",
"name":"Verchiez"
},
"geometry":{
"type":"Point",
"coordinates":[6.983719,46.308309]
}
},{
"type":"Feature",
"properties":{
"station_id":"8503316",
"name":"Steinmaur"
},
"geometry":{
"type":"Point",
"coordinates":[8.446549,47.490019]
}
},{
"type":"Feature",
"properties":{
"station_id":"8509004",
"name":"Bad Ragaz"
},
"geometry":{
"type":"Point",
"coordinates":[9.505668,47.010443]
}
},{
"type":"Feature",
"properties":{
"station_id":"8014462",
"name":"Rheinfelden (Baden)"
},
"geometry":{
"type":"Point",
"coordinates":[7.782504,47.556734]
}
},{
"type":"Feature",
"properties":{
"station_id":"8508262",
"name":"Walkringen"
},
"geometry":{
"type":"Point",
"coordinates":[7.618585,46.947345]
}
},{
"type":"Feature",
"properties":{
"station_id":"8501059",
"name":"Les Plantaz"
},
"geometry":{
"type":"Point",
"coordinates":[6.2293,46.391002]
}
},{
"type":"Feature",
"properties":{
"station_id":"8502002",
"name":"Brittnau-Wikon"
},
"geometry":{
"type":"Point",
"coordinates":[7.957194,47.262753]
}
},{
"type":"Feature",
"properties":{
"station_id":"8506171",
"name":"Frauenfeld Marktplatz"
},
"geometry":{
"type":"Point",
"coordinates":[8.898873,47.554155]
}
},{
"type":"Feature",
"properties":{
"station_id":"8506045",
"name":"Hettlingen"
},
"geometry":{
"type":"Point",
"coordinates":[8.694757,47.54534]
}
},{
"type":"Feature",
"properties":{
"station_id":"8509367",
"name":"Campascio"
},
"geometry":{
"type":"Point",
"coordinates":[10.131818,46.244605]
}
},{
"type":"Feature",
"properties":{
"station_id":"8500128",
"name":"Boncourt"
},
"geometry":{
"type":"Point",
"coordinates":[7.016116,47.492872]
}
},{
"type":"Feature",
"properties":{
"station_id":"8501423",
"name":"Vionnaz"
},
"geometry":{
"type":"Point",
"coordinates":[6.916663,46.314622]
}
},{
"type":"Feature",
"properties":{
"station_id":"8500025",
"name":"Itingen"
},
"geometry":{
"type":"Point",
"coordinates":[7.787432,47.467338]
}
},{
"type":"Feature",
"properties":{
"station_id":"8507276",
"name":"St. Stephan"
},
"geometry":{
"type":"Point",
"coordinates":[7.400195,46.505604]
}
},{
"type":"Feature",
"properties":{
"station_id":"8504061",
"name":"Remaufens"
},
"geometry":{
"type":"Point",
"coordinates":[6.882468,46.525978]
}
},{
"type":"Feature",
"properties":{
"station_id":"8501265",
"name":"La Chiésaz"
},
"geometry":{
"type":"Point",
"coordinates":[6.888555,46.46839]
}
},{
"type":"Feature",
"properties":{
"station_id":"8500265",
"name":"Gänsbrunnen"
},
"geometry":{
"type":"Point",
"coordinates":[7.464922,47.265586]
}
},{
"type":"Feature",
"properties":{
"station_id":"8501176",
"name":"Fey"
},
"geometry":{
"type":"Point",
"coordinates":[6.684704,46.674196]
}
},{
"type":"Feature",
"properties":{
"station_id":"8530366",
"name":"Pont du Rhône"
},
"geometry":{
"type":"Point",
"coordinates":[6.960329,46.275738]
}
},{
"type":"Feature",
"properties":{
"station_id":"8506036",
"name":"Reutlingen"
},
"geometry":{
"type":"Point",
"coordinates":[8.752367,47.52949]
}
},{
"type":"Feature",
"properties":{
"station_id":"8507086",
"name":"Niederscherli"
},
"geometry":{
"type":"Point",
"coordinates":[7.388356,46.886666]
}
},{
"type":"Feature",
"properties":{
"station_id":"8509197",
"name":"Bergün/Bravuogn"
},
"geometry":{
"type":"Point",
"coordinates":[9.746402,46.631778]
}
},{
"type":"Feature",
"properties":{
"station_id":"8503220",
"name":"Lachen"
},
"geometry":{
"type":"Point",
"coordinates":[8.852558,47.189999]
}
},{
"type":"Feature",
"properties":{
"station_id":"8500100",
"name":"Tavannes"
},
"geometry":{
"type":"Point",
"coordinates":[7.200357,47.21918]
}
},{
"type":"Feature",
"properties":{
"station_id":"8509075",
"name":"Davos Frauenkirch"
},
"geometry":{
"type":"Point",
"coordinates":[9.79926,46.766615]
}
},{
"type":"Feature",
"properties":{
"station_id":"8505304",
"name":"Capolago-Riva S. Vitale"
},
"geometry":{
"type":"Point",
"coordinates":[8.979096,45.903204]
}
},{
"type":"Feature",
"properties":{
"station_id":"8500021",
"name":"Pratteln"
},
"geometry":{
"type":"Point",
"coordinates":[7.691453,47.522801]
}
},{
"type":"Feature",
"properties":{
"station_id":"8502102",
"name":"Oberentfelden"
},
"geometry":{
"type":"Point",
"coordinates":[8.048203,47.356257]
}
},{
"type":"Feature",
"properties":{
"station_id":"8502182",
"name":"Unterentfelden Oberdorf"
},
"geometry":{
"type":"Point",
"coordinates":[8.041679,47.364647]
}
},{
"type":"Feature",
"properties":{
"station_id":"8506194",
"name":"Berg"
},
"geometry":{
"type":"Point",
"coordinates":[9.174353,47.582336]
}
},{
"type":"Feature",
"properties":{
"station_id":"8508003",
"name":"Hindelbank"
},
"geometry":{
"type":"Point",
"coordinates":[7.545268,47.049449]
}
},{
"type":"Feature",
"properties":{
"station_id":"8505175",
"name":"Rueras"
},
"geometry":{
"type":"Point",
"coordinates":[8.755027,46.678215]
}
},{
"type":"Feature",
"properties":{
"station_id":"8506275",
"name":"Steinegg"
},
"geometry":{
"type":"Point",
"coordinates":[9.430818,47.32045]
}
},{
"type":"Feature",
"properties":{
"station_id":"8509263",
"name":"Susch"
},
"geometry":{
"type":"Point",
"coordinates":[10.079267,46.752199]
}
},{
"type":"Feature",
"properties":{
"station_id":"8503304",
"name":"Kemptthal"
},
"geometry":{
"type":"Point",
"coordinates":[8.705797,47.452894]
}
},{
"type":"Feature",
"properties":{
"station_id":"8516154",
"name":"Bern Brünnen Westside"
},
"geometry":{
"type":"Point",
"coordinates":[7.380105,46.944843]
}
},{
"type":"Feature",
"properties":{
"station_id":"8509073",
"name":"Davos Platz"
},
"geometry":{
"type":"Point",
"coordinates":[9.820225,46.79082]
}
},{
"type":"Feature",
"properties":{
"station_id":"8503137",
"name":"Gibswil"
},
"geometry":{
"type":"Point",
"coordinates":[8.915517,47.313598]
}
},{
"type":"Feature",
"properties":{
"station_id":"8502177",
"name":"Schöftland Nordweg"
},
"geometry":{
"type":"Point",
"coordinates":[8.051069,47.310792]
}
},{
"type":"Feature",
"properties":{
"station_id":"8500303",
"name":"Mumpf"
},
"geometry":{
"type":"Point",
"coordinates":[7.912998,47.545913]
}
},{
"type":"Feature",
"properties":{
"station_id":"8516354",
"name":"Wolhusen Weid"
},
"geometry":{
"type":"Point",
"coordinates":[8.070856,47.065176]
}
},{
"type":"Feature",
"properties":{
"station_id":"8504055",
"name":"Prayoud",
"type":"disabled",
"rules":"",
"platform":""
},
"geometry":{
"type":"Point",
"coordinates":[6.900962,46.549591]
}
},{
"type":"Feature",
"properties":{
"station_id":"8500143",
"name":"Grandgourt"
},
"geometry":{
"type":"Point",
"coordinates":[7.048255,47.469645]
}
},{
"type":"Feature",
"properties":{
"station_id":"8500125",
"name":"Courgenay"
},
"geometry":{
"type":"Point",
"coordinates":[7.124399,47.405803]
}
},{
"type":"Feature",
"properties":{
"station_id":"8509194",
"name":"Alvaneu"
},
"geometry":{
"type":"Point",
"coordinates":[9.64446,46.668779]
}
},{
"type":"Feature",
"properties":{
"station_id":"8501287",
"name":"Lally"
},
"geometry":{
"type":"Point",
"coordinates":[6.913898,46.479674]
}
},{
"type":"Feature",
"properties":{
"station_id":"8501000",
"name":"Zimeysa"
},
"geometry":{
"type":"Point",
"coordinates":[6.065521,46.221205]
}
},{
"type":"Feature",
"properties":{
"station_id":"8507100",
"name":"Thun"
},
"geometry":{
"type":"Point",
"coordinates":[7.629246,46.754908]
}
},{
"type":"Feature",
"properties":{
"station_id":"8507072",
"name":"Burgistein"
},
"geometry":{
"type":"Point",
"coordinates":[7.52121,46.789435]
}
},{
"type":"Feature",
"properties":{
"station_id":"8501602",
"name":"Turtmann"
},
"geometry":{
"type":"Point",
"coordinates":[7.69664,46.309214]
}
},{
"type":"Feature",
"properties":{
"station_id":"8503209",
"name":"Pfäffikon SZ"
},
"geometry":{
"type":"Point",
"coordinates":[8.78123,47.203169]
}
},{
"type":"Feature",
"properties":{
"station_id":"8501003",
"name":"Satigny"
},
"geometry":{
"type":"Point",
"coordinates":[6.037614,46.21415]
}
},{
"type":"Feature",
"properties":{
"station_id":"8501080",
"name":"Le Marais"
},
"geometry":{
"type":"Point",
"coordinates":[6.460945,46.527636]
}
},{
"type":"Feature",
"properties":{
"station_id":"8508070",
"name":"Oberzollikofen"
},
"geometry":{
"type":"Point",
"coordinates":[7.461929,46.997001]
}
},{
"type":"Feature",
"properties":{
"station_id":"8508251",
"name":"Steffisburg"
},
"geometry":{
"type":"Point",
"coordinates":[7.615373,46.772751]
}
},{
"type":"Feature",
"properties":{
"station_id":"8503236",
"name":"Luchsingen-Hätzingen"
},
"geometry":{
"type":"Point",
"coordinates":[9.038516,46.964874]
}
},{
"type":"Feature",
"properties":{
"station_id":"8509000",
"name":"Chur"
},
"geometry":{
"type":"Point",
"coordinates":[9.528829,46.853649]
}
},{
"type":"Feature",
"properties":{
"station_id":"8504208",
"name":"Boudry"
},
"geometry":{
"type":"Point",
"coordinates":[6.835345,46.959743]
}
},{
"type":"Feature",
"properties":{
"station_id":"8503240",
"name":"Linthal Braunwaldbahn"
},
"geometry":{
"type":"Point",
"coordinates":[9.002294,46.928217]
}
},{
"type":"Feature",
"properties":{
"station_id":"8504386",
"name":"Les Coeudres"
},
"geometry":{
"type":"Point",
"coordinates":[6.780097,47.022766]
}
},{
"type":"Feature",
"properties":{
"station_id":"8508064",
"name":"Bätterkinden"
},
"geometry":{
"type":"Point",
"coordinates":[7.533934,47.129919]
}
},{
"type":"Feature",
"properties":{
"station_id":"8500287",
"name":"Wiedlisbach"
},
"geometry":{
"type":"Point",
"coordinates":[7.646202,47.252856]
}
},{
"type":"Feature",
"properties":{
"station_id":"8500217",
"name":"Olten Hammer"
},
"geometry":{
"type":"Point",
"coordinates":[7.897494,47.348562]
}
},{
"type":"Feature",
"properties":{
"station_id":"8530261",
"name":"Bois-de-Chexbres"
},
"geometry":{
"type":"Point",
"coordinates":[6.903524,46.471322]
}
},{
"type":"Feature",
"properties":{
"station_id":"8508218",
"name":"Malters"
},
"geometry":{
"type":"Point",
"coordinates":[8.180703,47.038621]
}
},{
"type":"Feature",
"properties":{
"station_id":"8506103",
"name":"Müllheim-Wigoltingen"
},
"geometry":{
"type":"Point",
"coordinates":[9.013587,47.588203]
}
},{
"type":"Feature",
"properties":{
"station_id":"8500273",
"name":"St. Katharinen"
},
"geometry":{
"type":"Point",
"coordinates":[7.550113,47.216218]
}
},{
"type":"Feature",
"properties":{
"station_id":"8508311",
"name":"Kaiserstuhl OW"
},
"geometry":{
"type":"Point",
"coordinates":[8.175365,46.814674]
}
},{
"type":"Feature",
"properties":{
"station_id":"8500214",
"name":"Egerkingen"
},
"geometry":{
"type":"Point",
"coordinates":[7.799055,47.314885]
}
},{
"type":"Feature",
"properties":{
"station_id":"8508306",
"name":"Brienzwiler"
},
"geometry":{
"type":"Point",
"coordinates":[8.089908,46.745521]
}
},{
"type":"Feature",
"properties":{
"station_id":"8504232",
"name":"Corcelles-Peseux"
},
"geometry":{
"type":"Point",
"coordinates":[6.884305,46.983262]
}
},{
"type":"Feature",
"properties":{
"station_id":"8504308",
"name":"Cormoret"
},
"geometry":{
"type":"Point",
"coordinates":[7.054041,47.172981]
}
},{
"type":"Feature",
"properties":{
"station_id":"8503101",
"name":"Küsnacht ZH"
},
"geometry":{
"type":"Point",
"coordinates":[8.580625,47.319594]
}
},{
"type":"Feature",
"properties":{
"station_id":"8505066",
"name":"Rigi Klösterli"
},
"geometry":{
"type":"Point",
"coordinates":[8.486899,47.042603]
}
},{
"type":"Feature",
"properties":{
"station_id":"8506012",
"name":"Guntershausen"
},
"geometry":{
"type":"Point",
"coordinates":[8.917093,47.474036]
}
},{
"type":"Feature",
"properties":{
"station_id":"8501007",
"name":"Vernier"
},
"geometry":{
"type":"Point",
"coordinates":[6.093687,46.22068]
}
},{
"type":"Feature",
"properties":{
"station_id":"8505303",
"name":"Maroggia-Melano"
},
"geometry":{
"type":"Point",
"coordinates":[8.974029,45.932514]
}
},{
"type":"Feature",
"properties":{
"station_id":"8509175",
"name":"Tavanasa-Breil/Brigels"
},
"geometry":{
"type":"Point",
"coordinates":[9.063071,46.754749]
}
},{
"type":"Feature",
"properties":{
"station_id":"8503294",
"name":"Riedmatt SZ"
},
"geometry":{
"type":"Point",
"coordinates":[8.712053,47.196704]
}
},{
"type":"Feature",
"properties":{
"station_id":"8503120",
"name":"Jona"
},
"geometry":{
"type":"Point",
"coordinates":[8.834349,47.230047]
}
},{
"type":"Feature",
"properties":{
"station_id":"8504052",
"name":"Au Moulin",
"type":"disabled",
"rules":"",
"platform":""
},
"geometry":{
"type":"Point",
"coordinates":[6.891678,46.526455]
}
},{
"type":"Feature",
"properties":{
"station_id":"8505079",
"name":"Mittlerschwanden"
},
"geometry":{
"type":"Point",
"coordinates":[8.482666,47.019171]
}
},{
"type":"Feature",
"properties":{
"station_id":"8501096",
"name":"Bière"
},
"geometry":{
"type":"Point",
"coordinates":[6.336495,46.537093]
}
},{
"type":"Feature",
"properties":{
"station_id":"8504486",
"name":"Gümmenen"
},
"geometry":{
"type":"Point",
"coordinates":[7.234992,46.94168]
}
},{
"type":"Feature",
"properties":{
"station_id":"8507092",
"name":"Belp Steinbach"
},
"geometry":{
"type":"Point",
"coordinates":[7.49334,46.894697]
}
},{
"type":"Feature",
"properties":{
"station_id":"8507289",
"name":"",
"type":"disabled",
"rules":"",
"platform":""
},
"geometry":{
"type":"Point",
"coordinates":[7.660812,46.691721]
}
},{
"type":"Feature",
"properties":{
"station_id":"8509184",
"name":"Bonaduz"
},
"geometry":{
"type":"Point",
"coordinates":[9.397852,46.810231]
}
},{
"type":"Feature",
"properties":{
"station_id":"8501173",
"name":"Echallens"
},
"geometry":{
"type":"Point",
"coordinates":[6.633421,46.639111]
}
},{
"type":"Feature",
"properties":{
"station_id":"8508050",
"name":"Bern RBS"
},
"geometry":{
"type":"Point",
"coordinates":[7.439775,46.950345]
}
},{
"type":"Feature",
"properties":{
"station_id":"8509251",
"name":"Samedan"
},
"geometry":{
"type":"Point",
"coordinates":[9.872464,46.532953]
}
},{
"type":"Feature",
"properties":{
"station_id":"8508155",
"name":"Bannwil"
},
"geometry":{
"type":"Point",
"coordinates":[7.74024,47.244608]
}
},{
"type":"Feature",
"properties":{
"station_id":"8509254",
"name":"Punt Muragl"
},
"geometry":{
"type":"Point",
"coordinates":[9.881122,46.509817]
}
},{
"type":"Feature",
"properties":{
"station_id":"8502006",
"name":"Wauwil"
},
"geometry":{
"type":"Point",
"coordinates":[8.024399,47.184571]
}
},{
"type":"Feature",
"properties":{
"station_id":"8506193",
"name":"Kehlhof"
},
"geometry":{
"type":"Point",
"coordinates":[9.170078,47.572325]
}
},{
"type":"Feature",
"properties":{
"station_id":"8501288",
"name":"Les Pléiades"
},
"geometry":{
"type":"Point",
"coordinates":[6.909762,46.483181]
}
},{
"type":"Feature",
"properties":{
"station_id":"8506000",
"name":"Winterthur"
},
"geometry":{
"type":"Point",
"coordinates":[8.724043,47.501114]
}
},{
"type":"Feature",
"properties":{
"station_id":"8014468",
"name":"Laufenburg (Baden)"
},
"geometry":{
"type":"Point",
"coordinates":[8.056914,47.562036]
}
},{
"type":"Feature",
"properties":{
"station_id":"8509006",
"name":"Chur Wiesental"
},
"geometry":{
"type":"Point",
"coordinates":[9.531148,46.862335]
}
},{
"type":"Feature",
"properties":{
"station_id":"8501503",
"name":"Riddes"
},
"geometry":{
"type":"Point",
"coordinates":[7.217901,46.172745]
}
},{
"type":"Feature",
"properties":{
"station_id":"8504064",
"name":"La Verrerie"
},
"geometry":{
"type":"Point",
"coordinates":[6.924769,46.5868]
}
},{
"type":"Feature",
"properties":{
"station_id":"8505390",
"name":"Serocca"
},
"geometry":{
"type":"Point",
"coordinates":[8.904762,46.008546]
}
},{
"type":"Feature",
"properties":{
"station_id":"8502023",
"name":"Ballwil"
},
"geometry":{
"type":"Point",
"coordinates":[8.317102,47.153601]
}
},{
"type":"Feature",
"properties":{
"station_id":"8506373",
"name":"Niederteufen"
},
"geometry":{
"type":"Point",
"coordinates":[9.367539,47.392341]
}
},{
"type":"Feature",
"properties":{
"station_id":"8509051",
"name":"Haldenstein"
},
"geometry":{
"type":"Point",
"coordinates":[9.533024,46.87785]
}
},{
"type":"Feature",
"properties":{
"station_id":"8506039",
"name":"Schloss Laufen am Rheinfall"
},
"geometry":{
"type":"Point",
"coordinates":[8.614287,47.676569]
}
},{
"type":"Feature",
"properties":{
"station_id":"8506371",
"name":"Riethüsli"
},
"geometry":{
"type":"Point",
"coordinates":[9.368855,47.408532]
}
},{
"type":"Feature",
"properties":{
"station_id":"8500114",
"name":"Zwingen"
},
"geometry":{
"type":"Point",
"coordinates":[7.529568,47.433424]
}
},{
"type":"Feature",
"properties":{
"station_id":"8500264",
"name":"Oberdorf SO"
},
"geometry":{
"type":"Point",
"coordinates":[7.493789,47.235804]
}
},{
"type":"Feature",
"properties":{
"station_id":"8506400",
"name":"Sandbüchel"
},
"geometry":{
"type":"Point",
"coordinates":[9.521813,47.475297]
}
},{
"type":"Feature",
"properties":{
"station_id":"8504051",
"name":"Tatroz",
"type":"disabled",
"rules":"",
"platform":""
},
"geometry":{
"type":"Point",
"coordinates":[6.876027,46.523769]
}
},{
"type":"Feature",
"properties":{
"station_id":"8500088",
"name":"Oberdorf BL Winkelweg"
},
"geometry":{
"type":"Point",
"coordinates":[7.748917,47.397212]
}
},{
"type":"Feature",
"properties":{
"station_id":"8501112",
"name":"Chavornay"
},
"geometry":{
"type":"Point",
"coordinates":[6.568159,46.710149]
}
},{
"type":"Feature",
"properties":{
"station_id":"8506318",
"name":"Rebstein-Marbach"
},
"geometry":{
"type":"Point",
"coordinates":[9.584405,47.391665]
}
},{
"type":"Feature",
"properties":{
"station_id":"8509412",
"name":"Mels"
},
"geometry":{
"type":"Point",
"coordinates":[9.417294,47.054013]
}
},{
"type":"Feature",
"properties":{
"station_id":"8500177",
"name":"Les Bois"
},
"geometry":{
"type":"Point",
"coordinates":[6.906105,47.176959]
}
},{
"type":"Feature",
"properties":{
"station_id":"8506198",
"name":"Tägerwilen Dorf"
},
"geometry":{
"type":"Point",
"coordinates":[9.147349,47.652921]
}
},{
"type":"Feature",
"properties":{
"station_id":"8503119",
"name":"Schänis"
},
"geometry":{
"type":"Point",
"coordinates":[9.044044,47.157249]
}
},{
"type":"Feature",
"properties":{
"station_id":"8505401",
"name":"Tenero"
},
"geometry":{
"type":"Point",
"coordinates":[8.850275,46.177549]
}
},{
"type":"Feature",
"properties":{
"station_id":"8506108",
"name":"Oberaach"
},
"geometry":{
"type":"Point",
"coordinates":[9.267499,47.553628]
}
},{
"type":"Feature",
"properties":{
"station_id":"8530813",
"name":"Zürich Kreuzplatz"
},
"geometry":{
"type":"Point",
"coordinates":[8.554099,47.364855]
}
},{
"type":"Feature",
"properties":{
"station_id":"8500188",
"name":"Bonfol"
},
"geometry":{
"type":"Point",
"coordinates":[7.155461,47.473952]
}
},{
"type":"Feature",
"properties":{
"station_id":"8509265",
"name":"Guarda"
},
"geometry":{
"type":"Point",
"coordinates":[10.151584,46.771555]
}
},{
"type":"Feature",
"properties":{
"station_id":"8508316",
"name":"Alpnach Dorf"
},
"geometry":{
"type":"Point",
"coordinates":[8.275359,46.940476]
}
},{
"type":"Feature",
"properties":{
"station_id":"8500127",
"name":"Courtemaîche"
},
"geometry":{
"type":"Point",
"coordinates":[7.055195,47.456348]
}
},{
"type":"Feature",
"properties":{
"station_id":"8509153",
"name":"St. Peter-Molinis"
},
"geometry":{
"type":"Point",
"coordinates":[9.653841,46.829229]
}
},{
"type":"Feature",
"properties":{
"station_id":"8502166",
"name":"Leimbach AG"
},
"geometry":{
"type":"Point",
"coordinates":[8.167998,47.272397]
}
},{
"type":"Feature",
"properties":{
"station_id":"8504495",
"name":"Bern Stöckacker"
},
"geometry":{
"type":"Point",
"coordinates":[7.40108,46.946363]
}
},{
"type":"Feature",
"properties":{
"station_id":"8501692",
"name":"Riffelberg"
},
"geometry":{
"type":"Point",
"coordinates":[7.755125,45.992816]
}
},{
"type":"Feature",
"properties":{
"station_id":"8501685",
"name":"St. Niklaus"
},
"geometry":{
"type":"Point",
"coordinates":[7.803549,46.17896]
}
},{
"type":"Feature",
"properties":{
"station_id":"8506181",
"name":"Bronschhofen"
},
"geometry":{
"type":"Point",
"coordinates":[9.0342,47.47597]
}
},{
"type":"Feature",
"properties":{
"station_id":"8500192",
"name":"Le Bémont"
},
"geometry":{
"type":"Point",
"coordinates":[7.014525,47.263662]
}
},{
"type":"Feature",
"properties":{
"station_id":"8507007",
"name":"Wichtrach"
},
"geometry":{
"type":"Point",
"coordinates":[7.568693,46.841628]
}
},{
"type":"Feature",
"properties":{
"station_id":"8505172",
"name":"Oberalppass"
},
"geometry":{
"type":"Point",
"coordinates":[8.669465,46.661196]
}
},{
"type":"Feature",
"properties":{
"station_id":"8505216",
"name":"Rivera-Bironico"
},
"geometry":{
"type":"Point",
"coordinates":[8.925342,46.123844]
}
},{
"type":"Feature",
"properties":{
"station_id":"8501162",
"name":"Union-Prilly"
},
"geometry":{
"type":"Point",
"coordinates":[6.609781,46.534578]
}
},{
"type":"Feature",
"properties":{
"station_id":"8500092",
"name":"Hölstein Süd"
},
"geometry":{
"type":"Point",
"coordinates":[7.767938,47.42282]
}
},{
"type":"Feature",
"properties":{
"station_id":"8508185",
"name":"Kleindietwil"
},
"geometry":{
"type":"Point",
"coordinates":[7.790831,47.146646]
}
},{
"type":"Feature",
"properties":{
"station_id":"8502221",
"name":"Birmensdorf ZH"
},
"geometry":{
"type":"Point",
"coordinates":[8.437399,47.357523]
}
},{
"type":"Feature",
"properties":{
"station_id":"8500294",
"name":"Balsthal"
},
"geometry":{
"type":"Point",
"coordinates":[7.694588,47.312986]
}
},{
"type":"Feature",
"properties":{
"station_id":"8508055",
"name":"Unterzollikofen"
},
"geometry":{
"type":"Point",
"coordinates":[7.457076,46.991694]
}
},{
"type":"Feature",
"properties":{
"station_id":"8501460",
"name":"Croix-du-Nant"
},
"geometry":{
"type":"Point",
"coordinates":[6.928398,46.240316]
}
},{
"type":"Feature",
"properties":{
"station_id":"8101242",
"name":"Nendeln"
},
"geometry":{
"type":"Point",
"coordinates":[9.541484,47.200246]
}
},{
"type":"Feature",
"properties":{
"station_id":"8504477",
"name":"Finsterhennen"
},
"geometry":{
"type":"Point",
"coordinates":[7.178955,47.029979]
}
},{
"type":"Feature",
"properties":{
"station_id":"8500182",
"name":"Le Seignat",
"type":"disabled",
"rules":"",
"platform":""
},
"geometry":{
"type":"Point",
"coordinates":[6.885908,47.133706]
}
},{
"type":"Feature",
"properties":{
"station_id":"8500130",
"name":"Delle"
},
"geometry":{
"type":"Point",
"coordinates":[7.012797,47.502942]
}
},{
"type":"Feature",
"properties":{
"station_id":"8500261",
"name":"Langendorf"
},
"geometry":{
"type":"Point",
"coordinates":[7.513627,47.217903]
}
},{
"type":"Feature",
"properties":{
"station_id":"8509416",
"name":"Unterterzen"
},
"geometry":{
"type":"Point",
"coordinates":[9.255238,47.114042]
}
},{
"type":"Feature",
"properties":{
"station_id":"8503303",
"name":"Illnau"
},
"geometry":{
"type":"Point",
"coordinates":[8.722707,47.408442]
}
},{
"type":"Feature",
"properties":{
"station_id":"8505397",
"name":"Caslano"
},
"geometry":{
"type":"Point",
"coordinates":[8.875271,45.977095]
}
},{
"type":"Feature",
"properties":{
"station_id":"8508208",
"name":"Trubschachen"
},
"geometry":{
"type":"Point",
"coordinates":[7.846168,46.921486]
}
},{
"type":"Feature",
"properties":{
"station_id":"8502231",
"name":"Zug Oberwil"
},
"geometry":{
"type":"Point",
"coordinates":[8.510106,47.14772]
}
},{
"type":"Feature",
"properties":{
"station_id":"8506210",
"name":"Gossau SG"
},
"geometry":{
"type":"Point",
"coordinates":[9.251062,47.411564]
}
},{
"type":"Feature",
"properties":{
"station_id":"8501573",
"name":"Martigny-Croix"
},
"geometry":{
"type":"Point",
"coordinates":[7.058462,46.086419]
}
},{
"type":"Feature",
"properties":{
"station_id":"8502199",
"name":"Schöftland"
},
"geometry":{
"type":"Point",
"coordinates":[8.049821,47.305681]
}
},{
"type":"Feature",
"properties":{
"station_id":"8507008",
"name":"Kiesen"
},
"geometry":{
"type":"Point",
"coordinates":[7.575322,46.819284]
}
},{
"type":"Feature",
"properties":{
"station_id":"8505067",
"name":"Rigi Wölfertschen-First"
},
"geometry":{
"type":"Point",
"coordinates":[8.476306,47.047404]
}
},{
"type":"Feature",
"properties":{
"station_id":"8503502",
"name":"Siggenthal-Würenlingen"
},
"geometry":{
"type":"Point",
"coordinates":[8.24088,47.521245]
}
},{
"type":"Feature",
"properties":{
"station_id":"8502230",
"name":"Zug Chollermüli"
},
"geometry":{
"type":"Point",
"coordinates":[8.483792,47.181029]
}
},{
"type":"Feature",
"properties":{
"station_id":"8504029",
"name":"Matran"
},
"geometry":{
"type":"Point",
"coordinates":[7.0962,46.788741]
}
},{
"type":"Feature",
"properties":{
"station_id":"8501499",
"name":"Col-de-Bretaye"
},
"geometry":{
"type":"Point",
"coordinates":[7.073481,46.321904]
}
},{
"type":"Feature",
"properties":{
"station_id":"8501117",
"name":"Bussigny"
},
"geometry":{
"type":"Point",
"coordinates":[6.552636,46.547083]
}
},{
"type":"Feature",
"properties":{
"station_id":"8506138",
"name":"Eschenz"
},
"geometry":{
"type":"Point",
"coordinates":[8.877014,47.645369]
}
},{
"type":"Feature",
"properties":{
"station_id":"8501283",
"name":"Tusinge"
},
"geometry":{
"type":"Point",
"coordinates":[6.898263,46.475345]
}
},{
"type":"Feature",
"properties":{
"station_id":"8508386",
"name":"Dörfli",
"type":"disabled",
"rules":"",
"platform":""
},
"geometry":{
"type":"Point",
"coordinates":[8.39008,46.897012]
}
},{
"type":"Feature",
"properties":{
"station_id":"8504306",
"name":"Cortébert"
},
"geometry":{
"type":"Point",
"coordinates":[7.107282,47.189428]
}
},{
"type":"Feature",
"properties":{
"station_id":"8506172",
"name":"Murkart"
},
"geometry":{
"type":"Point",
"coordinates":[8.915637,47.537733]
}
},{
"type":"Feature",
"properties":{
"station_id":"8501500",
"name":"Martigny"
},
"geometry":{
"type":"Point",
"coordinates":[7.080749,46.10613]
}
},{
"type":"Feature",
"properties":{
"station_id":"8501164",
"name":"Cery-Fleur-de-Lys"
},
"geometry":{
"type":"Point",
"coordinates":[6.601442,46.548623]
}
},{
"type":"Feature",
"properties":{
"station_id":"8516283",
"name":"Genève-Sécheron"
},
"geometry":{
"type":"Point",
"coordinates":[6.144425,46.223172]
}
},{
"type":"Feature",
"properties":{
"station_id":"8501484",
"name":"Aigle-Dépôt"
},
"geometry":{
"type":"Point",
"coordinates":[6.973558,46.318505]
}
},{
"type":"Feature",
"properties":{
"station_id":"8504469",
"name":"Nidau Beunden"
},
"geometry":{
"type":"Point",
"coordinates":[7.241002,47.120701]
}
},{
"type":"Feature",
"properties":{
"station_id":"8505164",
"name":"Hospental"
},
"geometry":{
"type":"Point",
"coordinates":[8.570925,46.621211]
}
},{
"type":"Feature",
"properties":{
"station_id":"8506359",
"name":"Schülerhaus"
},
"geometry":{
"type":"Point",
"coordinates":[9.389013,47.425179]
}
},{
"type":"Feature",
"properties":{
"station_id":"8500260",
"name":"Crémines-Zoo"
},
"geometry":{
"type":"Point",
"coordinates":[7.455278,47.273656]
}
},{
"type":"Feature",
"properties":{
"station_id":"8501579",
"name":"Le Châble"
},
"geometry":{
"type":"Point",
"coordinates":[7.214778,46.079265]
}
},{
"type":"Feature",
"properties":{
"station_id":"8507089",
"name":"Schwarzenburg"
},
"geometry":{
"type":"Point",
"coordinates":[7.343238,46.819163]
}
},{
"type":"Feature",
"properties":{
"station_id":"8507083",
"name":"Köniz"
},
"geometry":{
"type":"Point",
"coordinates":[7.414947,46.924976]
}
},{
"type":"Feature",
"properties":{
"station_id":"8502010",
"name":"St. Erhard-Knutwil"
},
"geometry":{
"type":"Point",
"coordinates":[8.074008,47.180117]
}
},{
"type":"Feature",
"properties":{
"station_id":"8502168",
"name":"Reinach AG"
},
"geometry":{
"type":"Point",
"coordinates":[8.184458,47.250137]
}
},{
"type":"Feature",
"properties":{
"station_id":"8501495",
"name":"Villars-sur-Ollon"
},
"geometry":{
"type":"Point",
"coordinates":[7.055747,46.293976]
}
},{
"type":"Feature",
"properties":{
"station_id":"8508184",
"name":"Lindenholz"
},
"geometry":{
"type":"Point",
"coordinates":[7.790395,47.154455]
}
},{
"type":"Feature",
"properties":{
"station_id":"8501030",
"name":"Nyon"
},
"geometry":{
"type":"Point",
"coordinates":[6.235297,46.383869]
}
},{
"type":"Feature",
"properties":{
"station_id":"8502162",
"name":"Unterkulm"
},
"geometry":{
"type":"Point",
"coordinates":[8.115242,47.310101]
}
},{
"type":"Feature",
"properties":{
"station_id":"8504471",
"name":"Ipsach"
},
"geometry":{
"type":"Point",
"coordinates":[7.235427,47.117516]
}
},{
"type":"Feature",
"properties":{
"station_id":"8507494",
"name":"Därligen"
},
"geometry":{
"type":"Point",
"coordinates":[7.814371,46.660042]
}
},{
"type":"Feature",
"properties":{
"station_id":"8501082",
"name":"Chardonney-Château"
},
"geometry":{
"type":"Point",
"coordinates":[6.432515,46.534773]
}
},{
"type":"Feature",
"properties":{
"station_id":"8101241",
"name":"",
"type":"disabled",
"rules":"",
"platform":""
},
"geometry":{
"type":"Point",
"coordinates":[9.562416,47.212378]
}
},{
"type":"Feature",
"properties":{
"station_id":"8501285",
"name":"Fayaux"
},
"geometry":{
"type":"Point",
"coordinates":[6.907844,46.470227]
}
},{
"type":"Feature",
"properties":{
"station_id":"8505006",
"name":"Schwyz"
},
"geometry":{
"type":"Point",
"coordinates":[8.63216,47.026161]
}
},{
"type":"Feature",
"properties":{
"station_id":"8509262",
"name":"Zernez"
},
"geometry":{
"type":"Point",
"coordinates":[10.089906,46.698011]
}
},{
"type":"Feature",
"properties":{
"station_id":"8504139",
"name":"Belfaux CFF"
},
"geometry":{
"type":"Point",
"coordinates":[7.106451,46.816837]
}
},{
"type":"Feature",
"properties":{
"station_id":"8501263",
"name":"Château-d'Hauteville"
},
"geometry":{
"type":"Point",
"coordinates":[6.865456,46.468608]
}
},{
"type":"Feature",
"properties":{
"station_id":"8504298",
"name":"Ste-Croix"
},
"geometry":{
"type":"Point",
"coordinates":[6.499366,46.819723]
}
},{
"type":"Feature",
"properties":{
"station_id":"8503413",
"name":"Kaiserstuhl AG"
},
"geometry":{
"type":"Point",
"coordinates":[8.418887,47.566737]
}
},{
"type":"Feature",
"properties":{
"station_id":"8506008",
"name":"Wila"
},
"geometry":{
"type":"Point",
"coordinates":[8.848769,47.417641]
}
},{
"type":"Feature",
"properties":{
"station_id":"8501191",
"name":"Orbe"
},
"geometry":{
"type":"Point",
"coordinates":[6.530203,46.725002]
}
},{
"type":"Feature",
"properties":{
"station_id":"8501505",
"name":"Ardon"
},
"geometry":{
"type":"Point",
"coordinates":[7.269132,46.2077]
}
},{
"type":"Feature",
"properties":{
"station_id":"8014490",
"name":"Thayngen"
},
"geometry":{
"type":"Point",
"coordinates":[8.704433,47.745661]
}
},{
"type":"Feature",
"properties":{
"station_id":"8501036",
"name":"St-Prex"
},
"geometry":{
"type":"Point",
"coordinates":[6.455337,46.481976]
}
},{
"type":"Feature",
"properties":{
"station_id":"8502226",
"name":"Knonau"
},
"geometry":{
"type":"Point",
"coordinates":[8.466864,47.220132]
}
},{
"type":"Feature",
"properties":{
"station_id":"8502211",
"name":"Hendschiken"
},
"geometry":{
"type":"Point",
"coordinates":[8.207346,47.389344]
}
},{
"type":"Feature",
"properties":{
"station_id":"8509351",
"name":"Punt Muragl Staz"
},
"geometry":{
"type":"Point",
"coordinates":[9.880077,46.507454]
}
},{
"type":"Feature",
"properties":{
"station_id":"8501085",
"name":"Ballens-Froideville"
},
"geometry":{
"type":"Point",
"coordinates":[6.389287,46.549559]
}
},{
"type":"Feature",
"properties":{
"station_id":"8500035",
"name":"Läufelfingen"
},
"geometry":{
"type":"Point",
"coordinates":[7.856252,47.392008]
}
},{
"type":"Feature",
"properties":{
"station_id":"8501120",
"name":"Lausanne"
},
"geometry":{
"type":"Point",
"coordinates":[6.62933,46.516583]
}
},{
"type":"Feature",
"properties":{
"station_id":"8507383",
"name":"Lütschental"
},
"geometry":{
"type":"Point",
"coordinates":[7.948453,46.636861]
}
},{
"type":"Feature",
"properties":{
"station_id":"8506353",
"name":"Wienacht-Tobel"
},
"geometry":{
"type":"Point",
"coordinates":[9.540528,47.465989]
}
},{
"type":"Feature",
"properties":{
"station_id":"8500211",
"name":"Niederbipp"
},
"geometry":{
"type":"Point",
"coordinates":[7.694848,47.270613]
}
},{
"type":"Feature",
"properties":{
"station_id":"8500119",
"name":"Münchenstein"
},
"geometry":{
"type":"Point",
"coordinates":[7.617452,47.513342]
}
},{
"type":"Feature",
"properties":{
"station_id":"8501374",
"name":"Fontanivent"
},
"geometry":{
"type":"Point",
"coordinates":[6.902393,46.452704]
}
},{
"type":"Feature",
"properties":{
"station_id":"8504237",
"name":"Les Hauts-Geneveys"
},
"geometry":{
"type":"Point",
"coordinates":[6.874701,47.047792]
}
},{
"type":"Feature",
"properties":{
"station_id":"8502011",
"name":"Oberkirch LU"
},
"geometry":{
"type":"Point",
"coordinates":[8.1143,47.155169]
}
},{
"type":"Feature",
"properties":{
"station_id":"8504312",
"name":"Renan BE"
},
"geometry":{
"type":"Point",
"coordinates":[6.924556,47.125421]
}
},{
"type":"Feature",
"properties":{
"station_id":"8500121",
"name":"Courfaivre"
},
"geometry":{
"type":"Point",
"coordinates":[7.290996,47.335245]
}
},{
"type":"Feature",
"properties":{
"station_id":"8507088",
"name":"Lanzenhäusern"
},
"geometry":{
"type":"Point",
"coordinates":[7.347353,46.842257]
}
},{
"type":"Feature",
"properties":{
"station_id":"8506287",
"name":"Gübsensee"
},
"geometry":{
"type":"Point",
"coordinates":[9.317698,47.398003]
}
},{
"type":"Feature",
"properties":{
"station_id":"8504186",
"name":"Münchenwiler-Courgevaux"
},
"geometry":{
"type":"Point",
"coordinates":[7.114972,46.911754]
}
},{
"type":"Feature",
"properties":{
"station_id":"8506470",
"name":"Stofel"
},
"geometry":{
"type":"Point",
"coordinates":[9.379769,47.391264]
}
},{
"type":"Feature",
"properties":{
"station_id":"8503093",
"name":"Zürich Manegg"
},
"geometry":{
"type":"Point",
"coordinates":[8.519718,47.338342]
}
},{
"type":"Feature",
"properties":{
"station_id":"8509413",
"name":"Flums"
},
"geometry":{
"type":"Point",
"coordinates":[9.347972,47.096702]
}
},{
"type":"Feature",
"properties":{
"station_id":"8504404",
"name":"Aarberg"
},
"geometry":{
"type":"Point",
"coordinates":[7.279194,47.045095]
}
},{
"type":"Feature",
"properties":{
"station_id":"8506201",
"name":"Lichtensteig"
},
"geometry":{
"type":"Point",
"coordinates":[9.082763,47.319324]
}
},{
"type":"Feature",
"properties":{
"station_id":"8500163",
"name":"Tramelan-Collège",
"type":"disabled",
"rules":"",
"platform":""
},
"geometry":{
"type":"Point",
"coordinates":[7.094319,47.224946]
}
},{
"type":"Feature",
"properties":{
"station_id":"8507079",
"name":"Bern Weissenbühl"
},
"geometry":{
"type":"Point",
"coordinates":[7.430057,46.935728]
}
},{
"type":"Feature",
"properties":{
"station_id":"8501300",
"name":"Montreux"
},
"geometry":{
"type":"Point",
"coordinates":[6.910915,46.43576]
}
},{
"type":"Feature",
"properties":{
"station_id":"8502196",
"name":"Unterentfelden Post"
},
"geometry":{
"type":"Point",
"coordinates":[8.04424,47.368637]
}
},{
"type":"Feature",
"properties":{
"station_id":"8504297",
"name":"Trois-Villes"
},
"geometry":{
"type":"Point",
"coordinates":[6.531685,46.800139]
}
},{
"type":"Feature",
"properties":{
"station_id":"8508464",
"name":"Vitznau"
},
"geometry":{
"type":"Point",
"coordinates":[8.482609,47.009483]
}
},{
"type":"Feature",
"properties":{
"station_id":"8505180",
"name":"Acla da Fontauna"
},
"geometry":{
"type":"Point",
"coordinates":[8.845538,46.696891]
}
},{
"type":"Feature",
"properties":{
"station_id":"8504022",
"name":"Siviriez"
},
"geometry":{
"type":"Point",
"coordinates":[6.883265,46.656421]
}
},{
"type":"Feature",
"properties":{
"station_id":"8502219",
"name":"Oberrüti"
},
"geometry":{
"type":"Point",
"coordinates":[8.404897,47.165887]
}
},{
"type":"Feature",
"properties":{
"station_id":"8506013",
"name":"Aadorf"
},
"geometry":{
"type":"Point",
"coordinates":[8.900967,47.488804]
}
},{
"type":"Feature",
"properties":{
"station_id":"8502213",
"name":"Wohlen AG"
},
"geometry":{
"type":"Point",
"coordinates":[8.268833,47.34882]
}
},{
"type":"Feature",
"properties":{
"station_id":"8101237",
"name":"Forst (FL) Hilti"
},
"geometry":{
"type":"Point",
"coordinates":[9.520652,47.180946]
}
},{
"type":"Feature",
"properties":{
"station_id":"8505111",
"name":"Sisikon"
},
"geometry":{
"type":"Point",
"coordinates":[8.620603,46.949453]
}
},{
"type":"Feature",
"properties":{
"station_id":"8509054",
"name":"Zizers"
},
"geometry":{
"type":"Point",
"coordinates":[9.55962,46.934978]
}
},{
"type":"Feature",
"properties":{
"station_id":"8508304",
"name":"Ebligen"
},
"geometry":{
"type":"Point",
"coordinates":[7.989528,46.752427]
}
},{
"type":"Feature",
"properties":{
"station_id":"8501165",
"name":"Jouxtens-Mézery"
},
"geometry":{
"type":"Point",
"coordinates":[6.600743,46.556723]
}
},{
"type":"Feature",
"properties":{
"station_id":"8502163",
"name":"Oberkulm"
},
"geometry":{
"type":"Point",
"coordinates":[8.124158,47.298931]
}
},{
"type":"Feature",
"properties":{
"station_id":"8500302",
"name":"Möhlin"
},
"geometry":{
"type":"Point",
"coordinates":[7.833468,47.561807]
}
},{
"type":"Feature",
"properties":{
"station_id":"8504076",
"name":"Estavannens"
},
"geometry":{
"type":"Point",
"coordinates":[7.086271,46.573312]
}
},{
"type":"Feature",
"properties":{
"station_id":"8501609",
"name":"Brig"
},
"geometry":{
"type":"Point",
"coordinates":[7.988133,46.319727]
}
},{
"type":"Feature",
"properties":{
"station_id":"8500028",
"name":"Tecknau"
},
"geometry":{
"type":"Point",
"coordinates":[7.887643,47.445551]
}
},{
"type":"Feature",
"properties":{
"station_id":"8500210",
"name":"Wangen an der Aare"
},
"geometry":{
"type":"Point",
"coordinates":[7.656302,47.231997]
}
},{
"type":"Feature",
"properties":{
"station_id":"8502220",
"name":"Urdorf"
},
"geometry":{
"type":"Point",
"coordinates":[8.43493,47.391051]
}
},{
"type":"Feature",
"properties":{
"station_id":"8509053",
"name":"Untervaz-Trimmis"
},
"geometry":{
"type":"Point",
"coordinates":[9.55932,46.919056]
}
},{
"type":"Feature",
"properties":{
"station_id":"8501479",
"name":"Les Diablerets"
},
"geometry":{
"type":"Point",
"coordinates":[7.154711,46.351347]
}
},{
"type":"Feature",
"properties":{
"station_id":"8506277",
"name":"Schwende"
},
"geometry":{
"type":"Point",
"coordinates":[9.435643,47.299844]
}
},{
"type":"Feature",
"properties":{
"station_id":"8504483",
"name":"Ins"
},
"geometry":{
"type":"Point",
"coordinates":[7.099674,46.999782]
}
},{
"type":"Feature",
"properties":{
"station_id":"8503403",
"name":"Hüntwangen-Wil"
},
"geometry":{
"type":"Point",
"coordinates":[8.512724,47.581124]
}
},{
"type":"Feature",
"properties":{
"station_id":"8505075",
"name":"Rigi Staffelhöhe"
},
"geometry":{
"type":"Point",
"coordinates":[8.464207,47.047881]
}
},{
"type":"Feature",
"properties":{
"station_id":"8102352",
"name":"Lustenau"
},
"geometry":{
"type":"Point",
"coordinates":[9.663021,47.446323]
}
},{
"type":"Feature",
"properties":{
"station_id":"8014464",
"name":"Schwörstadt"
},
"geometry":{
"type":"Point",
"coordinates":[7.87272,47.591265]
}
},{
"type":"Feature",
"properties":{
"station_id":"8506177",
"name":"Rosental"
},
"geometry":{
"type":"Point",
"coordinates":[8.975755,47.492135]
}
},{
"type":"Feature",
"properties":{
"station_id":"8506038",
"name":"Winterthur Wallrüti"
},
"geometry":{
"type":"Point",
"coordinates":[8.76087,47.516782]
}
},{
"type":"Feature",
"properties":{
"station_id":"8508062",
"name":"Büren zum Hof"
},
"geometry":{
"type":"Point",
"coordinates":[7.518674,47.09575]
}
},{
"type":"Feature",
"properties":{
"station_id":"8503010",
"name":"Zürich Enge"
},
"geometry":{
"type":"Point",
"coordinates":[8.530693,47.363794]
}
},{
"type":"Feature",
"properties":{
"station_id":"8507273",
"name":"Oeschseite"
},
"geometry":{
"type":"Point",
"coordinates":[7.35208,46.531143]
}
},{
"type":"Feature",
"properties":{
"station_id":"8501382",
"name":"Châtelard VD"
},
"geometry":{
"type":"Point",
"coordinates":[6.900904,46.446751]
}
},{
"type":"Feature",
"properties":{
"station_id":"8501383",
"name":"Planchamp"
},
"geometry":{
"type":"Point",
"coordinates":[6.900872,46.451222]
}
},{
"type":"Feature",
"properties":{
"station_id":"8506291",
"name":"Schachen (Herisau)"
},
"geometry":{
"type":"Point",
"coordinates":[9.243227,47.385318]
}
},{
"type":"Feature",
"properties":{
"station_id":"8507091",
"name":"Liebefeld"
},
"geometry":{
"type":"Point",
"coordinates":[7.418805,46.929834]
}
},{
"type":"Feature",
"properties":{
"station_id":"8502277",
"name":"Rudolfstetten"
},
"geometry":{
"type":"Point",
"coordinates":[8.381905,47.370052]
}
},{
"type":"Feature",
"properties":{
"station_id":"8505219",
"name":"Lamone-Cadempino"
},
"geometry":{
"type":"Point",
"coordinates":[8.932475,46.03941]
}
},{
"type":"Feature",
"properties":{
"station_id":"8503314",
"name":"Niederhasli"
},
"geometry":{
"type":"Point",
"coordinates":[8.488598,47.478321]
}
},{
"type":"Feature",
"properties":{
"station_id":"8516353",
"name":"Baldegg Kloster"
},
"geometry":{
"type":"Point",
"coordinates":[8.280359,47.18097]
}
},{
"type":"Feature",
"properties":{
"station_id":"8501381",
"name":"Vuarennes"
},
"geometry":{
"type":"Point",
"coordinates":[6.90915,46.440592]
}
},{
"type":"Feature",
"properties":{
"station_id":"8509264",
"name":"Lavin"
},
"geometry":{
"type":"Point",
"coordinates":[10.111215,46.769816]
}
},{
"type":"Feature",
"properties":{
"station_id":"8505007",
"name":"Brunnen"
},
"geometry":{
"type":"Point",
"coordinates":[8.610149,46.999003]
}
},{
"type":"Feature",
"properties":{
"station_id":"8505373",
"name":"Bellavista",
"type":"disabled",
"rules":"",
"platform":""
},
"geometry":{
"type":"Point",
"coordinates":[9.001113,45.911078]
}
},{
"type":"Feature",
"properties":{
"station_id":"8503007",
"name":"Zürich Seebach"
},
"geometry":{
"type":"Point",
"coordinates":[8.544056,47.418536]
}
},{
"type":"Feature",
"properties":{
"station_id":"8502004",
"name":"Dagmersellen"
},
"geometry":{
"type":"Point",
"coordinates":[7.978275,47.216216]
}
},{
"type":"Feature",
"properties":{
"station_id":"8508182",
"name":"Lotzwil"
},
"geometry":{
"type":"Point",
"coordinates":[7.78829,47.189658]
}
},{
"type":"Feature",
"properties":{
"station_id":"8506169",
"name":"Wiesengrund"
},
"geometry":{
"type":"Point",
"coordinates":[8.949105,47.501958]
}
},{
"type":"Feature",
"properties":{
"station_id":"8504484",
"name":"Müntschemier"
},
"geometry":{
"type":"Point",
"coordinates":[7.142705,46.9932]
}
},{
"type":"Feature",
"properties":{
"station_id":"8503299",
"name":"Hurden"
},
"geometry":{
"type":"Point",
"coordinates":[8.800718,47.214239]
}
},{
"type":"Feature",
"properties":{
"station_id":"8516271",
"name":"Steinach"
},
"geometry":{
"type":"Point",
"coordinates":[9.442169,47.500744]
}
},{
"type":"Feature",
"properties":{
"station_id":"8502195",
"name":"Muhen"
},
"geometry":{
"type":"Point",
"coordinates":[8.053681,47.33662]
}
},{
"type":"Feature",
"properties":{
"station_id":"8500175",
"name":"Le Creux-des-Biches"
},
"geometry":{
"type":"Point",
"coordinates":[6.940881,47.203605]
}
},{
"type":"Feature",
"properties":{
"station_id":"8506203",
"name":"Bütschwil"
},
"geometry":{
"type":"Point",
"coordinates":[9.075318,47.359535]
}
},{
"type":"Feature",
"properties":{
"station_id":"8508204",
"name":"Bowil"
},
"geometry":{
"type":"Point",
"coordinates":[7.699126,46.900163]
}
},{
"type":"Feature",
"properties":{
"station_id":"8503108",
"name":"Uerikon"
},
"geometry":{
"type":"Point",
"coordinates":[8.753135,47.235716]
}
},{
"type":"Feature",
"properties":{
"station_id":"8501488",
"name":"Bévieux"
},
"geometry":{
"type":"Point",
"coordinates":[7.030562,46.258967]
}
},{
"type":"Feature",
"properties":{
"station_id":"8507364",
"name":"Jungfraujoch"
},
"geometry":{
"type":"Point",
"coordinates":[7.984824,46.547527]
}
},{
"type":"Feature",
"properties":{
"station_id":"8501565",
"name":"Finhaut"
},
"geometry":{
"type":"Point",
"coordinates":[6.976468,46.082298]
}
},{
"type":"Feature",
"properties":{
"station_id":"8503074",
"name":"Neue Forch"
},
"geometry":{
"type":"Point",
"coordinates":[8.63805,47.325524]
}
},{
"type":"Feature",
"properties":{
"station_id":"8508399",
"name":"Engelberg"
},
"geometry":{
"type":"Point",
"coordinates":[8.402829,46.81972]
}
},{
"type":"Feature",
"properties":{
"station_id":"8501106",
"name":"Croy-Romainmôtier"
},
"geometry":{
"type":"Point",
"coordinates":[6.477957,46.696973]
}
},{
"type":"Feature",
"properties":{
"station_id":"8501677",
"name":"Bitsch"
},
"geometry":{
"type":"Point",
"coordinates":[8.017275,46.336153]
}
},{
"type":"Feature",
"properties":{
"station_id":"8503099",
"name":"Sihlau"
},
"geometry":{
"type":"Point",
"coordinates":[8.525549,47.303044]
}
},{
"type":"Feature",
"properties":{
"station_id":"8508063",
"name":"Schalunen"
},
"geometry":{
"type":"Point",
"coordinates":[7.523965,47.110075]
}
},{
"type":"Feature",
"properties":{
"station_id":"8506389",
"name":"Alter Zoll"
},
"geometry":{
"type":"Point",
"coordinates":[9.522573,47.368729]
}
},{
"type":"Feature",
"properties":{
"station_id":"8501369",
"name":"Rochers-de-Naye"
},
"geometry":{
"type":"Point",
"coordinates":[6.978817,46.431729]
}
},{
"type":"Feature",
"properties":{
"station_id":"8507075",
"name":"Toffen"
},
"geometry":{
"type":"Point",
"coordinates":[7.496071,46.858562]
}
},{
"type":"Feature",
"properties":{
"station_id":"8504387",
"name":"Petit-Martel"
},
"geometry":{
"type":"Point",
"coordinates":[6.75515,47.009909]
}
},{
"type":"Feature",
"properties":{
"station_id":"8508051",
"name":"Bern Felsenau"
},
"geometry":{
"type":"Point",
"coordinates":[7.44444,46.968668]
}
},{
"type":"Feature",
"properties":{
"station_id":"8508101",
"name":"Roggwil-Wynau"
},
"geometry":{
"type":"Point",
"coordinates":[7.81837,47.252301]
}
},{
"type":"Feature",
"properties":{
"station_id":"8502022",
"name":"Eschenbach"
},
"geometry":{
"type":"Point",
"coordinates":[8.322803,47.132293]
}
},{
"type":"Feature",
"properties":{
"station_id":"8500275",
"name":"Bei den Weihern"
},
"geometry":{
"type":"Point",
"coordinates":[7.566908,47.22856]
}
},{
"type":"Feature",
"properties":{
"station_id":"8503318",
"name":"Niederweningen Dorf"
},
"geometry":{
"type":"Point",
"coordinates":[8.38167,47.505704]
}
},{
"type":"Feature",
"properties":{
"station_id":"8500207",
"name":"Solothurn"
},
"geometry":{
"type":"Point",
"coordinates":[7.551067,47.205235]
}
},{
"type":"Feature",
"properties":{
"station_id":"8504231",
"name":"Les Deurres"
},
"geometry":{
"type":"Point",
"coordinates":[6.898155,46.984965]
}
},{
"type":"Feature",
"properties":{
"station_id":"8504117",
"name":"Oberwangen"
},
"geometry":{
"type":"Point",
"coordinates":[7.362023,46.914365]
}
},{
"type":"Feature",
"properties":{
"station_id":"8500123",
"name":"Glovelier"
},
"geometry":{
"type":"Point",
"coordinates":[7.206128,47.33649]
}
},{
"type":"Feature",
"properties":{
"station_id":"8505119",
"name":"Göschenen"
},
"geometry":{
"type":"Point",
"coordinates":[8.589625,46.667311]
}
},{
"type":"Feature",
"properties":{
"station_id":"8504221",
"name":"Neuchâtel"
},
"geometry":{
"type":"Point",
"coordinates":[6.935466,46.996983]
}
},{
"type":"Feature",
"properties":{
"station_id":"8508004",
"name":"Lyssach"
},
"geometry":{
"type":"Point",
"coordinates":[7.581708,47.063874]
}
},{
"type":"Feature",
"properties":{
"station_id":"8506182",
"name":"Bettwiesen"
},
"geometry":{
"type":"Point",
"coordinates":[9.020644,47.49843]
}
},{
"type":"Feature",
"properties":{
"station_id":"8508268",
"name":"Zollbrück"
},
"geometry":{
"type":"Point",
"coordinates":[7.741074,46.975836]
}
},{
"type":"Feature",
"properties":{
"station_id":"8500215",
"name":"Hägendorf"
},
"geometry":{
"type":"Point",
"coordinates":[7.843835,47.330162]
}
},{
"type":"Feature",
"properties":{
"station_id":"8505064",
"name":"Kräbel"
},
"geometry":{
"type":"Point",
"coordinates":[8.530355,47.040173]
}
},{
"type":"Feature",
"properties":{
"station_id":"8506202",
"name":"Dietfurt"
},
"geometry":{
"type":"Point",
"coordinates":[9.078503,47.344277]
}
},{
"type":"Feature",
"properties":{
"station_id":"8502204",
"name":"Zug"
},
"geometry":{
"type":"Point",
"coordinates":[8.5163,47.177689]
}
},{
"type":"Feature",
"properties":{
"station_id":"8507388",
"name":"Wilderswil"
},
"geometry":{
"type":"Point",
"coordinates":[7.869421,46.665649]
}
},{
"type":"Feature",
"properties":{
"station_id":"8503505",
"name":"Wettingen"
},
"geometry":{
"type":"Point",
"coordinates":[8.313693,47.460563]
}
},{
"type":"Feature",
"properties":{
"station_id":"8500206",
"name":"Solothurn West"
},
"geometry":{
"type":"Point",
"coordinates":[7.531839,47.206619]
}
},{
"type":"Feature",
"properties":{
"station_id":"8504222",
"name":"St-Blaise CFF"
},
"geometry":{
"type":"Point",
"coordinates":[6.982421,47.01481]
}
},{
"type":"Feature",
"properties":{
"station_id":"8501304",
"name":"Roche VD"
},
"geometry":{
"type":"Point",
"coordinates":[6.926537,46.359304]
}
},{
"type":"Feature",
"properties":{
"station_id":"8508327",
"name":"Ewil Maxon"
},
"geometry":{
"type":"Point",
"coordinates":[8.218842,46.860822]
}
},{
"type":"Feature",
"properties":{
"station_id":"8506049",
"name":"Dachsen"
},
"geometry":{
"type":"Point",
"coordinates":[8.613937,47.666796]
}
},{
"type":"Feature",
"properties":{
"station_id":"8503306",
"name":"Dietlikon"
},
"geometry":{
"type":"Point",
"coordinates":[8.619319,47.420096]
}
},{
"type":"Feature",
"properties":{
"station_id":"8502019",
"name":"Ermensee"
},
"geometry":{
"type":"Point",
"coordinates":[8.24259,47.229508]
}
},{
"type":"Feature",
"properties":{
"station_id":"8506101",
"name":"Felben-Wellhausen"
},
"geometry":{
"type":"Point",
"coordinates":[8.942608,47.576858]
}
},{
"type":"Feature",
"properties":{
"station_id":"8503069",
"name":"Zürich Rehalp"
},
"geometry":{
"type":"Point",
"coordinates":[8.582595,47.351077]
}
},{
"type":"Feature",
"properties":{
"station_id":"8504014",
"name":"Palézieux"
},
"geometry":{
"type":"Point",
"coordinates":[6.837087,46.541084]
}
},{
"type":"Feature",
"properties":{
"station_id":"8506375",
"name":"Teufen"
},
"geometry":{
"type":"Point",
"coordinates":[9.390061,47.390137]
}
},{
"type":"Feature",
"properties":{
"station_id":"8503064",
"name":"Scheuren"
},
"geometry":{
"type":"Point",
"coordinates":[8.660035,47.322505]
}
},{
"type":"Feature",
"properties":{
"station_id":"8504000",
"name":"Pully-Nord"
},
"geometry":{
"type":"Point",
"coordinates":[6.657818,46.514651]
}
},{
"type":"Feature",
"properties":{
"station_id":"8501671",
"name":"Fürgangen-Bellwald Talstation"
},
"geometry":{
"type":"Point",
"coordinates":[8.152433,46.411902]
}
},{
"type":"Feature",
"properties":{
"station_id":"8508310",
"name":"Lungern"
},
"geometry":{
"type":"Point",
"coordinates":[8.163597,46.786287]
}
},{
"type":"Feature",
"properties":{
"station_id":"8508005",
"name":"Burgdorf"
},
"geometry":{
"type":"Point",
"coordinates":[7.619228,47.060898]
}
},{
"type":"Feature",
"properties":{
"station_id":"8503401",
"name":"Glattfelden"
},
"geometry":{
"type":"Point",
"coordinates":[8.523801,47.548794]
}
},{
"type":"Feature",
"properties":{
"station_id":"8504302",
"name":"Reuchenette-Péry"
},
"geometry":{
"type":"Point",
"coordinates":[7.244531,47.190102]
}
},{
"type":"Feature",
"properties":{
"station_id":"8500162",
"name":"Tramelan-Dessous"
},
"geometry":{
"type":"Point",
"coordinates":[7.097021,47.221563]
}
},{
"type":"Feature",
"properties":{
"station_id":"8501200",
"name":"Vevey"
},
"geometry":{
"type":"Point",
"coordinates":[6.842793,46.463525]
}
},{
"type":"Feature",
"properties":{
"station_id":"8501379",
"name":"Les Sciernes"
},
"geometry":{
"type":"Point",
"coordinates":[7.034302,46.491457]
}
},{
"type":"Feature",
"properties":{
"station_id":"8508384",
"name":"Niederrickenbach Station"
},
"geometry":{
"type":"Point",
"coordinates":[8.396362,46.92769]
}
},{
"type":"Feature",
"properties":{
"station_id":"8507294",
"name":"Weissenburg"
},
"geometry":{
"type":"Point",
"coordinates":[7.476148,46.659348]
}
},{
"type":"Feature",
"properties":{
"station_id":"8516161",
"name":"Bern Wankdorf"
},
"geometry":{
"type":"Point",
"coordinates":[7.459971,46.966355]
}
},{
"type":"Feature",
"properties":{
"station_id":"8504236",
"name":"Les Geneveys-sur-Coffrane"
},
"geometry":{
"type":"Point",
"coordinates":[6.853379,47.015518]
}
},{
"type":"Feature",
"properties":{
"station_id":"8502034",
"name":"Beinwil am See"
},
"geometry":{
"type":"Point",
"coordinates":[8.202295,47.267885]
}
},{
"type":"Feature",
"properties":{
"station_id":"8501008",
"name":"Genève"
},
"geometry":{
"type":"Point",
"coordinates":[6.142368,46.210499]
}
},{
"type":"Feature",
"properties":{
"station_id":"8501308",
"name":"Glion-Collège"
},
"geometry":{
"type":"Point",
"coordinates":[6.925949,46.433814]
}
},{
"type":"Feature",
"properties":{
"station_id":"8507474",
"name":"Goppenstein"
},
"geometry":{
"type":"Point",
"coordinates":[7.755182,46.366963]
}
},